nome_equip_urbano,tipo_equip_urbano,endereco_equip_urbano,codigo_logradouro,lei_equip_urbano,nome_oficial_equip_urbano,area,perimetro,codigo_bairro,nome_bairro,latitude,longitude,area_m2,bairro_normalizado
,Area Verde,Avenida Governador Agamenon Magalhaes,,,,"3243,735391","329,5865855",108,Santo Amaro,-8.038875265,-34.87617362,3243.735391,SANTO AMARO
Dr Jose Vilela,Praça,Avenida Dezessete De Agosto/ Rua Dr Jose Vilela/ Rua Jose De Godoy Vasconcelos,66567.0,00448/49,Praça Dr José Vilela,"3042,858638","214,8839095",469,Parnamirim,-8.034090657,-34.91157119,3042.858638,PARNAMIRIM
Dr Lula Cabral De Melo,Praça,Avenida Dezessete De Agosto/ Avenida Parnamirim/ Rua Padre Roma,66630.0,12917/77,Praça Dr Lula Cabral de Melo,"1893,010563","172,7622162",469,Parnamirim,-8.033198405,-34.91029444,1893.010563,PARNAMIRIM
Jornalista Francisco Pessoa De Queiroz Júnior,Praça,Rua Nestor Silva/ Rua Leonardo Bezerra Cavalcante,84255.0,14265/81,Praça Jornalista Francisco Pessoa de Queiroz,"722,7935899","100,7092719",450,Santana,-8.037484858,-34.91386712,722.7935899,SANTANA
Rádio Jornal Do Comercio,Praça,Avenida Dezesste De Agosto/ Rua Leonardo Bezerra Cavalcante,66893.0,00453/46,Praça Rádio Jornal do Comércio,"2724,390231","204,0777537",469,Parnamirim,-8.036970992,-34.913944,2724.390231,PARNAMIRIM
Rádio Jornal Do Comércio,Praça,Avenida Dezesste De Agosto/ Rua Leonardo Bezerra Cavalcante,66893.0,00453/46,Praça Rádio Jornal do Comércio,"611,9990994","93,49845397",469,Parnamirim,-8.03708098,-34.91429516,611.9990994,PARNAMIRIM
Osvaldo Cruz,Praça,Rua Joao Fernandes Vieira/ Rua Osvaldo Cruz,66761.0,,Praça Oswaldo Cruz,"3644,799287","340,5317923",116,Soledade,-8.055074228,-34.89156634,3644.799287,SOLEDADE
,Area Verde,Avenida Governador Agamenon Magalhaes/ Rua Dr Jaime Da Fonte,,,,"234,3165586","77,54774228",108,Santo Amaro,-8.039951285,-34.87859053,234.3165586,SANTO AMARO
Flôr De Santana,Praça,Avenida Dezessete De Agosto/Rua Dona Olegarinha Da Cunha/ Rua De Santana,66427.0,,Praça Flor de Santana,"790,7132127","111,2194642",477,Poco,-8.038112654,-34.91806848,790.7132127,POCO
Da Vila Teimosinho,Praça,Rua Das Saudades/Rua Do Girassol,29858.0,07930/62,Praça da Vila Teimosinho,"344,9842595","87,56716062",248,Pina,-8.085811115,-34.88401847,344.9842595,PINA
Da Restauraçao/ Do Pirulito,Praça,Rua Padre Floriano/ Rua Do Jardim,66885.0,,Praça da Restauração,"88,22923397","33,3156835",35,Sao Jose,-8.069986929,-34.8802037,88.22923397,SAO JOSE
Do Monteiro,Praça,Avenida Dezessete De Agosto,66729.0,,Praca do Monteiro,"668,8804646","106,0118735",485,Monteiro,-8.027913492,-34.92798922,668.8804646,MONTEIRO
Sérgio Loreto,Praça,Rua Imperial,66982.0,01395/24,Praça Sérgio Loreto,"4560,931602","311,952528",35,Sao Jose,-8.072488891,-34.8853334,4560.931602,SAO JOSE
Das Cinco Pontas,Praça,Rua Vidal De Negreiros/Rua Imperial,66176.0,01737/29,Praça das Cinco Pontas,"157,3078383","51,91709231",35,Sao Jose,-8.071880743,-34.88214292,157.3078383,SAO JOSE
Das Cinco Pontas,Praça,Rua Vidal De Negreiros,66176.0,01737/29,Praça das Cinco Pontas,"878,2432253","136,6903852",35,Sao Jose,-8.071573012,-34.88188765,878.2432253,SAO JOSE
Dezessete,Praça,Rua Imperador Pedro Ii,66273.0,,Praça Dezessete,"816,9992761","115,2610157",27,Santo Antonio,-8.065308057,-34.87691259,816.9992761,SANTO ANTONIO
Das Cinco Pontas,Praça,Rua Vidal De Negreiros,66176.0,01737/29,Praça das Cinco Pontas,"1463,617695","160,5477269",35,Sao Jose,-8.071007482,-34.88144625,1463.617695,SAO JOSE
Dom Vital,Praça,Rua Das Calcadas,67075.0,00318/42,Praça Dom Vital,"1096,675348","133,2604994",35,Sao Jose,-8.068186779,-34.87835072,1096.675348,SAO JOSE
Joaquim Nabuco,Praça,Rua Frei Caneca/ Cais Da Detencao,66575.0,5483/59,Praça Joaquim Nabuco,"1826,451645","186,412957",27,Santo Antonio,-8.064545759,-34.88125311,1826.451645,SANTO ANTONIO
Dezessete,Praça,Rua Imperador Pedro Ii / Avenida Martins De Barros,66273.0,,Praça Dezessete,"1151,809795","130,9991914",27,Santo Antonio,-8.065251334,-34.87653876,1151.809795,SANTO ANTONIO
Da Comunidade Luso - Brasileira,Praça,Cais Do Apolo/Avenida Militar,66184.0,10003/68,Praça da Comunidade Luso Brasileira,"1902,98919","173,5535226",19,Recife,-8.053736449,-34.87103187,1902.98919,RECIFE
Da Independência/ Diário De Pernambuco,Praça,Avenida Dantas Barreto/Rua Primeiro De Março,66303.0,11463/74,Praça da Independência,"2168,67139","205,9724732",27,Santo Antonio,-8.064166299,-34.87815957,2168.67139,SANTO ANTONIO
Chora Menino,Praça,Rua Paissandu/ Avenida Lins Petit,66192.0,,Praça Chora menino,"2372,239044","270,4761545",94,Paissandu,-8.060289347,-34.89488865,2372.239044,PAISSANDU
Rio Branco ( Marco Zero),Praça,Avenida Alfredo Lisboa,66869.0,00192/39,Praça Rio Branco,"5468,326667","294,4333486",19,Recife,-8.063157342,-34.87109061,5468.326667,RECIFE
Tiradentes,Praça,Cais Do Apolo/Rua Bione,60984.0,07930/62,Travessa Tiradentes,"5076,945565","276,5877931",19,Recife,-8.058698428,-34.87207801,5076.945565,RECIFE
,Area Verde,Rua Dr Jaime Da Fonte/Avenida Governador Agamenon Magalhaes,,,,"485,0326105","105,7618124",108,Santo Amaro,-8.040064717,-34.87845583,485.0326105,SANTO AMARO
General Carlos Pinto/ Largo Dos Casados,Praça,Rua Arlindo Melo/ Avenida Cruz Cabuga/ Rua Dos Casados,66230.0,00178/48,Praca General Carlos Pinto,"3250,886457","285,133871",108,Santo Amaro,-8.040097305,-34.87190978,3250.886457,SANTO AMARO
Do Rosario,Praça,Rua Francisco Lacerda,122998.0,,Praça do Rosário,"251,073068","120,0399718",736,Varzea,-8.050490532,-34.95836889,251.073068,VARZEA
Maciel Pinheiro,Praça,Rua Do Hospicio / Rua Do Aragao,66702.0,00027/46,Praça Maciel Pinheiro,"1343,102546","162,9794785",86,Boa Vista,-8.062376317,-34.88573807,1343.102546,BOA VISTA
Parque Amorim,Praça,Rua Joao Fernandes Vieira/Avenida Agamenon Magalhaes,73326.0,,Praça Parque Amorim,"1647,876963","198,0992465",86,Boa Vista,-8.052047649,-34.89498176,1647.876963,BOA VISTA
,Area Verde,Avenida Norte Miguel Arraes De Alencar/Avenida Governador Miguel Arraes De Alencar,,,,"83,38378095","38,14856386",108,Santo Amaro,-8.042891848,-34.88461108,83.38378095,SANTO AMARO
San Martin,Praça,Avenida General San Martin,119911.0,,Praça da Avenida General San Martin,"3062,605426","196,1893452",817,San Martin,-8.071011847,-34.92879124,3062.605426,SAN MARTIN
,Area Verde,Rua Nova Europa/ Rua Pedro Boulitreau/Trv Pedro Boulitreau/Rua Farroupilha,,,,"1935,777252","186,5333421",817,San Martin,-8.075195066,-34.93140072,1935.777252,SAN MARTIN
,Area Verde,Avenida Agamenon Magalhaes,,,,"739,6589317","128,198638",108,Santo Amaro,-8.040140979,-34.87885013,739.6589317,SANTO AMARO
Profeta Joseph Smith/ Da Santa,Praça,Avenida Engenheiro Domingos Ferreira,86487.0,14706/85,Praça Profeta Joseph Smith,"5938,539789","700,3519636",248,Pina,-8.096888965,-34.88604569,5938.539789,PINA
Miguel De Cervantes,Praça,Rua Francisco Alves,66672.0,3.340/55,Praça Miguel de Cervantes,"1037,065806","138,759571",78,Ilha Do Leite,-8.067558726,-34.89395077,1037.065806,ILHA DO LEITE
Miguel De Cervantes,Praça,Rua Estado De Israel/Rua Capitao Jose  Da Luz,66672.0,3.340/55,Praça Miguel de Cervantes,"872,9275081","104,7369237",78,Ilha Do Leite,-8.066101465,-34.89327839,872.9275081,ILHA DO LEITE
Miguel De Cervantes,Praça,Rua Francisco Alves/Rua Jose De Alencar /Ruaantonio Gomes De Freitas,66672.0,3.340/55,Praça Miguel de Cervantes,"2104,794269","246,9475899",78,Ilha Do Leite,-8.066768098,-34.89357782,2104.794269,ILHA DO LEITE
Dom Jose Pereira Alves,Praça,Rua Manoel Elias/Rua Des Manoel De Sa Pereira/Rua Dom Jose Pereira Alves,72460.0,,Praça Dom José Pereira Alves,"695,7855432","111,4876446",680,Cordeiro,-8.049211071,-34.92536237,695.7855432,CORDEIRO
Dom Diogo Camarão,Praça,Rua Capitao Francisco Barreiras/Rua Capitao Manuel De Araujo Miranda,66311.0,10074/69,Praça Dom Diogo Camarao,"928,0450268","135,6480533",680,Cordeiro,-8.060342319,-34.92881848,928.0450268,CORDEIRO
Pantanal,Praca,Rua Capitao Gregorio De Albuquerque/Praca Pantanal/Rua Capitao Domingos Da Costa,79685.0,,Praça Pantanal,"684,8925334","123,6817051",850,Areias,-8.094827242,-34.93383621,684.8925334,AREIAS
Da Bandeira,Praça,Avenida Sport Clube Do Recife/ Rua Benfica/ Rua Chico Science,66109.0,02206/39,Praça da Bandeira,"2344,640792","185,890931",647,Madalena,-8.061391901,-34.90159021,2344.640792,MADALENA
Salgueiro,Praça,Rua Comendador Alvares De Carvalho/Rua Ribeirao/ Prc Salgueiro,66915.0,,Praça Salgueiro,"1250,396333","191,0809589",698,Iputinga,-8.042580862,-34.93823736,1250.396333,IPUTINGA
Da Esperança/ Largo Dona Suzana,Praça,Rua Joao Da Mata/Caratinga/Rosa Candida,71820.0,,Praça da Esperança,"539,1142959","98,67109183",671,Zumbi,-8.054287351,-34.91619183,539.1142959,ZUMBI
Euclides Da Cunha / Do Internacional,Praça,Rua Benfica /  Severino Pinheiro / Heitor Maia Filho,66451.0,10074/69,Praça do Internacional,"6259,305832","329,8503772",647,Madalena,-8.058381,-34.9035688,6259.305832,MADALENA
Camilo Pereira Carneiro,Praça,Avenida Getulio Vargas,89435.0,09515/65,Praça Camilo Pereira Carneiro,"68642,3295","1552,59103",752,Curado,-8.068604891,-34.94432198,68642.3295,CURADO
Da Rua Tijucal,Area Verde,Rua Tijucal/Avenida Norte Miguel Arraes De Alencar,,,,"593,3985494","93,31441478",582,Macaxeira,-8.013646924,-34.93138401,593.3985494,MACAXEIRA
,Area Verde,Rua Dr. Abel Ventura /  Rua Fernando Benvindo Da Fonseca,,,,"5892,810202","353,0747886",450,Santana,-8.041435012,-34.91669427,5892.810202,SANTANA
Da Rua Da Aurora,Area Verde,Rua Da Aurora/ Avenida Norte Miguel Arraes De Alencar,,,,"40642,75388","2537,032196",108,Santo Amaro,-8.054397738,-34.87641698,40642.75388,SANTO AMARO
Cemitério De Santo Amaro,Area Verde,Rua Do Pombal/Rua Dos Palmares,,,,"119512,906","1384,029593",108,Santo Amaro,-8.049582688,-34.88498801,119512.906,SANTO AMARO
,Area Verde,Rua Dianopolis/Rua Odete Monteiro,,,,"979,9926409","189,3383183",680,Cordeiro,-8.046766289,-34.91858353,979.9926409,CORDEIRO
Da Conceição,Praça,Rua Morro Da Conceição,66214.0,,Praça da Conceição,"6368,164132","429,3131839",531,Morro Da Conceicao,-8.019349645,-34.91530281,6368.164132,MORRO DA CONCEICAO
,Area Verde,Rua Professora Maria Do Carmo Araujo/R Antonio Pereira/ R Dr Jose Ramos De Vasconcelos,,,,"10631,64778","406,6825512",817,San Martin,-8.071264414,-34.9252638,10631.64778,SAN MARTIN
,Area Verde,Avenida Governador Agamenon Magalhaes,,,,"5669,730769","511,9297931",280,Campo Grande,-8.037785157,-34.87559909,5669.730769,CAMPO GRANDE
,Area Verde,Avenida Governador Agamenon Magalhaes,,,,"340,637002","83,99881803",108,Santo Amaro,-8.040273354,-34.8790422,340.637002,SANTO AMARO
,Area Verde,Avenida Governador Agamenon Magalhaes,,,,"4449,466837","434,4529967",108,Santo Amaro,-8.039557198,-34.87758353,4449.466837,SANTO AMARO
,Area Verde,Avenida Governador Agamenon Magalhaes,,,,"1620,032858","174,5500708",280,Campo Grande,-8.039077325,-34.87836625,1620.032858,CAMPO GRANDE
,Area Verde,Avenida Governador Agamenon Magalhaes,,,,"1950,603145","201,2370171",272,Torreao,-8.039652709,-34.87960599,1950.603145,TORREAO
,Area Verde,Avenida Gov Agamenon Magalhaes,,,,"4507,611822","436,0795326",272,Torreao,-8.040196208,-34.88078221,4507.611822,TORREAO
,Area Verde,Avenida Governador Agamenon Magalhaes,,,,"3928,148486","367,35941",124,Espinheiro,-8.042645879,-34.88604571,3928.148486,ESPINHEIRO
,Area Verde,Avenida Governador Agamenon Magalhaes,,,,"10522,42433","834,8573975",108,Santo Amaro,-8.044428742,-34.88808027,10522.42433,SANTO AMARO
Da Avenida Militar,Area Verde,Avenida Militar,,,,"665,7893281","107,0222614",19,Recife,-8.051739587,-34.87140794,665.7893281,RECIFE
Nossa Senhora Da Boa Viagem,Praça,Rua Setubal / Rua Dr Nylo Dornellas Camara / Avenida Boa Viagem / Rua Barao De Souza Leao,66044.0,,Praça da  Boa Viagem,"8407,359778","393,9326088",205,Boa Viagem,-8.132007092,-34.90073518,8407.359778,BOA VIAGEM
Da Rua Potengy,Area Verde,Rua Potengy/ Rua Itanage,,,,"173,6371027","66,95138386",213,Ipsep,-8.105240332,-34.91980071,173.6371027,IPSEP
Da Avenida Militar,Area Verde,Avenida Militar,,,,"463,2260672","135,5628453",19,Recife,-8.051520894,-34.87194045,463.2260672,RECIFE
Da Avenida Militar,Area Verde,Avenida Militar,,,,"1012,036453","336,7500879",19,Recife,-8.052881346,-34.87170011,1012.036453,RECIFE
Da Avenida Militar,Area Verde,Avenida Militar,,,,"634,4859777","99,63544497",19,Recife,-8.051871726,-34.87167723,634.4859777,RECIFE
Do Cais Do Apolo,Area Verde,Cais Do Apolo,,,,"923,8390639","352,6006795",19,Recife,-8.054053374,-34.87184563,923.8390639,RECIFE
Fernando Galvao/Quatro De Outubro,Praça,Rua Dr Vilas Boas/Rua Olimpio Costa/Praca Fernando Galvao,66850.0,16369/98,Praça Fernando Galvão,"1867,635131","202,160456",850,Areias,-8.095441959,-34.93894494,1867.635131,AREIAS
Da Av Engenheiro José Estelita,Area Verde,Avenida Engenheiro Jose Estelita/ Rua Capitao Temudo,,,,"3313,075659","542,5936527",51,Cabanga,-8.077561278,-34.89143533,3313.075659,CABANGA
Frei Caneca - A,Praça,Avenida Sul,,,,"2158,411114","233,9744035",35,Sao Jose,-8.072191159,-34.88117152,2158.411114,SAO JOSE
Da Rua Do Futuro,Area Verde,Rua Do Futuro/Rua Padre Roma/Rua Muniz Tavares,,,,"224,3425154","66,7518608",159,Jaqueira,-8.034005727,-34.90573516,224.3425154,JAQUEIRA
,Area Verde,Avenida Governador Agamenon Magalhaes,,,,"5277,312251","463,8507151",108,Santo Amaro,-8.041356705,-34.88147277,5277.312251,SANTO AMARO
Da Av Engenheiro Abdias De Carvalho,Area Verde,Avenida Engenheiro Abdias De Carvalho,,,,"236,1215108","95,852903",647,Madalena,-8.06095448,-34.90486416,236.1215108,MADALENA
Da Av Engenheiro Abdias De Carvalho,Area Verde,Avenida Eng Abdias De  Carvalho,,,,"62,43450096","39,86580573",760,Ilha Do Retiro,-8.061248393,-34.90476612,62.43450096,ILHA DO RETIRO
Jardim Sao Paulo/ João Cabral De Melo Neto,Praça,Rua Senador Alberto Pasqualini/Rua N S  De Fatima/Rua Damasco,66010.0,14597/83,Praça do Jardim São Paulo,"6582,838854","287,6469289",868,Jardim Sao Paulo,-8.081623961,-34.93836152,6582.838854,JARDIM SAO PAULO
Da Av Engenheiro Abdias De Carvalho,Area Verde,Avenida Engenheiro Abdias De Carvalho,,,,"84,91887102","42,19634588",760,Ilha Do Retiro,-8.061310509,-34.90468385,84.91887102,ILHA DO RETIRO
Da Av Engenheiro Abdias De Carvalho,Area Verde,Avenida Eng Abdias De Carvalho,,,,"50,36220699","32,85654207",760,Ilha Do Retiro,-8.061265784,-34.90495975,50.36220699,ILHA DO RETIRO
Da Rua Desenhista Eulino Santos,Area Verde,Rua Bento Justino De Souza/R Desenhista Eulino Santos,,,,"1101,360597","138,1815275",329,Arruda,-8.022622716,-34.88358087,1101.360597,ARRUDA
Rua João Praxedes De Oliveira Filho,Area Verde,Rua Joao Praxedes De Oliveira Filho/Rua Elias Gomes/ Travenida Joao Praxedes De Oliveira Filho,,,,"421,4498364","95,94243712",310,Campina Do Barreto,-8.019861155,-34.87964878,421.4498364,CAMPINA DO BARRETO
Avenida Beberibe,Area Verde,Avenida Beberibe,,,,"138,9170241","57,12022249",345,Fundao,-8.014560519,-34.88976264,138.9170241,FUNDAO
Da Rua Hercília De Medeiros,Area Verde,Rua Hercília De Medeiros/ R Barão De Tamandare / R Alice Tibiriçá,,,,"1216,79834","139,7243657",353,Cajueiro,-8.009903415,-34.88279639,1216.79834,CAJUEIRO
Da Avenida Prefeito Artur Lima Cavalcanti,Area Verde,Avenida Prefeito Artur Lima Cavalcanti,,,,"5207,239643","603,9307669",108,Santo Amaro,-8.046079646,-34.87409266,5207.239643,SANTO AMARO
Da Rua Capitão Temudo,Area Verde,Rua Capitão Temudo,,,,"1297,900663","326,6387085",51,Cabanga,-8.07862112,-34.89231853,1297.900663,CABANGA
Rua Paissandu,Area Verde,Rua Paissandu/ Avenida Lins Petit,,,,"109,0369723","80,74473572",94,Paissandu,-8.059680128,-34.89434829,109.0369723,PAISSANDU
Da Avenida Lins Petit,Area Verde,Avenida Lins Petit,,,,"89,81787082","44,65779205",94,Paissandu,-8.060749595,-34.89497265,89.81787082,PAISSANDU
Da Rua Da Paz,Area Verde,Rua Da Paz/Praca Da Paz,,,,"55,80694647","35,62044817",779,Afogados,-8.080332697,-34.90644806,55.80694647,AFOGADOS
Da Rua General Francisco Figueiroa,Area Verde,Rua Gal Francisco Figueiroa/Rua Capitao Estevao Fernandes,,,,"50,79344063","29,50193404",850,Areias,-8.092892551,-34.93000118,50.79344063,AREIAS
Da Avenida General San Martin,Area Verde,Avenida General San Martin,,,,"548,7151653","111,3679722",817,San Martin,-8.070637246,-34.92899331,548.7151653,SAN MARTIN
Da Avenida General San Martin,Area Verde,Avenida General San Martin,,,,"42,14747428","30,50246116",817,San Martin,-8.07063049,-34.92868239,42.14747428,SAN MARTIN
Beira Rio,Praça,Avenida Beira Rio,123684.0,,Praça Beira Rio,"19966,22917","1723,610725",655,Torre,-8.046253452,-34.90402245,19966.22917,TORRE
Beira Rio,Praça,Avenida Beira Rio,123684.0,,Praça Beira Rio,"19966,22917","1723,610725",647,Madalena,-8.049835422,-34.90450432,19966.22917,MADALENA
Da Rua Padre Teófilo Tworz,Area Verde,Rua Padre Teófilo Tworz/ Rua Cosme Viana,,,,"226,9617642","81,74705516",779,Afogados,-8.065392699,-34.90904097,226.9617642,AFOGADOS
Da Av Norte Miguel Arraes De Alencar,Area Verde,Avenida Norte Miguel Arraes De Alencar/ Rua Do Monte,,,,"1499,082628","155,2048011",582,Macaxeira,-8.01260259,-34.93214478,1499.082628,MACAXEIRA
Da Avenida General San Martin,Area Verde,Avenida General San Martin,,,,"399,7507674","117,0317102",817,San Martin,-8.070825919,-34.92843602,399.7507674,SAN MARTIN
Da Avenida General San Martin,Area Verde,Avenida General San Martin,,,,"501,2248992","119,2103928",817,San Martin,-8.071371718,-34.92859386,501.2248992,SAN MARTIN
Da Avenida General San Martin,Area Verde,Avenida General San Martin,,,,"406,1308641","118,4631108",817,San Martin,-8.071159946,-34.92915854,406.1308641,SAN MARTIN
Da Avenida Luiz De Lacerda,Area Verde,Avenida Historiador Jordao Emerenciano/ Avenida Luiz De Lacerda,,,,"181,9914709","62,34884574",698,Iputinga,-8.036639892,-34.94315655,181.9914709,IPUTINGA
Da Rua Benfica,Area Verde,Rua Benfica,,,,"380,1366162","83,00209016",647,Madalena,-8.058063583,-34.90426786,380.1366162,MADALENA
Da Rua Benfica,Area Verde,Rua Benfica,,,,"110,0369544","62,66482456",647,Madalena,-8.058643274,-34.90281486,110.0369544,MADALENA
Da Rua Arão Botler,Area Verde,Rua Arao Botler / Avenida Cidade De Monteiro,,,,"229,7198589","76,7401018",361,Porto Da Madeira,-8.00920484,-34.88856854,229.7198589,PORTO DA MADEIRA
Da Av Beberibe/ Av Cidade De Monteiro,Area Verde,Avenida Beberibe/ Avenida Cidade De Monteiro,,,,"709,3229676","144,4033954",361,Porto Da Madeira,-8.009918879,-34.8888922,709.3229676,PORTO DA MADEIRA
Da Av Beberibe/ Av Cidade De Monteiro,Area Verde,Avenida Beberibe/ Avenida Cidade De Monteiro/ Rua Arao Botler,,,,"1589,814424","148,6790552",361,Porto Da Madeira,-8.009474259,-34.88883199,1589.814424,PORTO DA MADEIRA
Da Avenida Governador Agamenon Magalhaes,Area Verde,Avenida Governador Agamenon Magalhaes,,,,"4875,904477","435,8870089",108,Santo Amaro,-8.043270963,-34.88559356,4875.904477,SANTO AMARO
Do Monteiro,Praça,Avenida Dezessete De Agosto,66729.0,,Praca do Monteiro,"787,7179912","131,276212",485,Monteiro,-8.02785261,-34.92845605,787.7179912,MONTEIRO
Prof. Barreto Campelo,Praça,Rua Conselheiro Theodoro/ Rua Marques De Marica,66117.0,10485/72,Praça Professor Barreto Campello,"2461,053184","242,5829023",655,Torre,-8.047997177,-34.91484274,2461.053184,TORRE
Deputado Fábio Correa,Praça,Rua Severino Bernadino Pessoa/ Rua Irapiranga,119709.0,14.355/81,Praça deputado Fabio Correa,"597,9855524","132,224455",523,Alto Jose Do Pinho,-8.022359393,-34.90632204,597.9855524,ALTO JOSE DO PINHO
Prof. Barreto Campelo,Praça,Rua Jose De Holanda/ Rua Barreto Campelo/Rua Zilda S De Santana,66117.0,10485/72,Praça Professor Barreto Campello,"4519,880225","383,5406497",655,Torre,-8.04702363,-34.91399529,4519.880225,TORRE
Joao Pessoa De Queiroz,Praça,Rua Domingos De Abreu Vasconcelos/Aniceto Ribeiro Varejao/Des Capristano De Moraes E Silva,66516.0,10.124/69,Praça João Pessoa de Queiroz,"2252,435147","183,5839488",701,Torroes,-8.067352423,-34.9329581,2252.435147,TORROES
Do Paraiso,Praça,Rua Cinco De Novembro,89486.0,13.805/79,Praça do Paraíso,"315,1620589","82,73900618",779,Afogados,-8.08105852,-34.90718956,315.1620589,AFOGADOS
Academia Da Cidade,Area Verde,Avenida Gov Agamenon Magalhaes,,,,"5549,353666","503,9604724",272,Torreao,-8.041581726,-34.8837587,5549.353666,TORREAO
Vila Do Moinho Recife,Praça,Rua Domingos Bastos,77232.0,,Praça Vila do Moinho Recife,"313,8420519","100,3726751",175,Encruzilhada,-8.03731776,-34.88891284,313.8420519,ENCRUZILHADA
,Area Verde,Avenida Governador Agamenon Magalhaes,,,,"9328,991515","774,9700755",124,Espinheiro,-8.043698771,-34.88829308,9328.991515,ESPINHEIRO
São Braz,Praça,Rua Capitao Manuel De Aguiar/R Capitao Braz De Barros/R Capitao Francisco Coutinho/Praça Sao Braz,74322.0,,Praça São Braz,"1658,410372","159,0876812",850,Areias,-8.094377412,-34.93161111,1658.410372,AREIAS
Alfredo Pinto/Das Lavadeiras,Praça,Rua Caruaru/ Rua Palmares/Rua Goiana/Rua Argemiro Galvao,65854.0,00318/42,Praça Alfredo Pinto,"3259,518082","264,0279385",850,Areias,-8.094351239,-34.93686828,3259.518082,AREIAS
Do Sena,Praça,Rua Capitao Joao Pontes/Rua Capitao Antonio Franca/Rua Capitao Domingos Da Costa,74330.0,,Praça do Sena,"4898,081623","333,2515955",850,Areias,-8.095864063,-34.9336817,4898.081623,AREIAS
Jornalista Anibal Fernandes,Praça,Rua Capitao Estevao Fernandes/Rua Gal Francisco Fiqueiroa/R Capitao Jacinto Da Cruz,65943.0,,Praça Jornalista Anibal Fernandes,"5085,369008","314,3882844",850,Areias,-8.093486844,-34.93011487,5085.369008,AREIAS
Professor Abdgar Soriano,Praça,Rua Frei Manuel Calado/Rua General Francisco Figueiroa,99651.0,,Praça Professor Abdgar Soriano,"1992,750137","198,062038",850,Areias,-8.09243358,-34.93017666,1992.750137,AREIAS
Capiba,Praça,Rua Engenheiro Edgar D'Amorim / Rua Do Futuro,100501.0,16897/03,Praça Capiba,"360,8648409","87,74306565",167,Gracas,-8.043766763,-34.89813483,360.8648409,GRACAS
Maria Da Conceição Otacilio,Praça,Rua Otacilio Pessoa/Rua Padre Diogo Rodrigues/Prc Maria Da Conceicao,66737.0,02793/54,Praça Maria da Conceição,"1495,029741","151,6647014",876,Barro,-8.089525934,-34.94038585,1495.029741,BARRO
De Campo Grande/Eudoro Correa,Praça,Estrada De Belem/ Rua Goncalves Dias/ Rua Catulo Da Paixao Cearense,66150.0,,Praça de Campo Grande,"3856,433498","291,3306562",280,Campo Grande,-8.032299001,-34.87744157,3856.433498,CAMPO GRANDE
Augustus Rodrigues,Praça,Rua Augusto Rodrigues/Rua Padre Miguelinho/R Dom Joao Da Costa,70858.0,,Praça Augusto Rodrigues,"2259,265663","188,0861343",272,Torreao,-8.039388541,-34.88519858,2259.265663,TORREAO
Da República,Praça,Rua Praca Da Republica,66877.0,,Praça da República,"6931,022614","321,7493661",27,Santo Antonio,-8.060768613,-34.87844425,6931.022614,SANTO ANTONIO
Da República,Praça,Rua Da Praca Da Republica,66877.0,,Praça da República,"5561,022882","309,4697411",27,Santo Antonio,-8.061000454,-34.8768515,5561.022882,SANTO ANTONIO
Da República,Praça,Rua Praca Da Republica,66877.0,,Praça da República,"8266,864094","357,4864461",27,Santo Antonio,-8.06089663,-34.87757372,8266.864094,SANTO ANTONIO
Gregorio Bezerra,Praça,Rua Arumanduba/Rua Souza Bandeira,90441.0,15065/88,Praça Gregório Bezerra,"8019,261149","801,0692726",655,Torre,-8.044551422,-34.91490004,8019.261149,TORRE
Da Saudade/ Campo Santo,Praça,Rua Do Pombal/ Avenida  Da Saudade/ Rua Treze De Maio,66249.0,,Praça do Campo Santo,"9873,341906","398,2827211",108,Santo Amaro,-8.05036453,-34.88283192,9873.341906,SANTO AMARO
Abelardo Rijo,Praça,Rua Capitao Temudo/ Avenida Engenheiro Jose Estelita,65900.0,10316/71,Praça Abelardo Rijo,"9723,843408","437,5827564",51,Cabanga,-8.078168684,-34.89174203,9723.843408,CABANGA
Governador Paulo Guerra,Praça,Avenida Saturnino De Brito/  Rua Capitao Temudo,72630.0,,Praça Governador Paulo Guerra,"2426,404129","276,7261257",51,Cabanga,-8.080074629,-34.89232223,2426.404129,CABANGA
Da Cavalaria,Praça,Rua Delmiro Gouveia/Avenida General San Martin/Rua Apulcro De Assuncao,79243.0,,Praça da Cavalaria,"1260,048771","136,081916",817,San Martin,-8.065380736,-34.92749122,1260.048771,SAN MARTIN
Dr Adolfo Cirne / Faculdade De Direito,Praça,Rua Princesa Izabel/ Rua Do Hospicio/Rua Do Riachuelo,65889.0,01259/22,Praça Dr Adolfo Cirne,"20280,10499","556,4343466",86,Boa Vista,-8.058708287,-34.88265545,20280.10499,BOA VISTA
Da Cavalaria,Praça,Avenida Consul Vilares Fragoso/Rua Comendador Franco Ferreira/Avenida Gal San Martin,79243.0,,Praça da Cavalaria,"1277,616061","139,7306722",817,San Martin,-8.065579426,-34.92710117,1277.616061,SAN MARTIN
Arari Ferreira Fonseca,Praça,Rua Romulo Da Fonseca Gomes/ Rua Monsenhor Ferreira Lima,3590.0,,Praça Arari Ferreira Fonseca,"553,04426","112,2618386",698,Iputinga,-8.029962639,-34.93615205,553.04426,IPUTINGA
Sao Benedito Pereira Dos Santos,Praça,Rua Tapirema/ Prc Sao Benedito Pereira Dos Santos/R Serra Nova/,94846.0,,Praça São Benedito Pereira dos Santos,"380,4137817","84,74122887",736,Varzea,-8.037886757,-34.98178557,380.4137817,VARZEA
Professor Moraes Rego/ Do Taxi,Praça,Rua Agricolandia /Avenida Professor Moraes Rego,72320.0,,Praça Jockey Clube,"1024,794857","133,455584",736,Varzea,-8.043240462,-34.94389603,1024.794857,VARZEA
Jockey Clube,Praça,Rua Carlos Gomes E Jockey Clube,72320.0,,Praça Jockey Clube,"439,3176572","80,03634139",663,Prado,-8.061039542,-34.91281501,439.3176572,PRADO
Filonila Ferreira,Praça,Rua Monsenhor Joao Barbalho/Praca Filonila Ferreira,75302.0,13455/78,Praça Filonila Ferreira,"213,1768505","66,80185724",736,Varzea,-8.041457663,-34.95658737,213.1768505,VARZEA
Nossa Senhora Da Paz / Largo Da Paz,Praça,Rua Motocolombo/Rua Da Paz,66826.0,,Praça da Paz,"2961,900359","244,3952283",779,Afogados,-8.080605731,-34.90612789,2961.900359,AFOGADOS
Bernardo  Vieira De Melo,Praça,Rua Joao Perdigao/Praca Bernardo Vieira De Melo/R Theodorico Selva/Rua Padre Nobrega,66036.0,,Praça Bernardo Vieira de Melo,"1150,529557","140,6048059",876,Barro,-8.090245819,-34.93875574,1150.529557,BARRO
Sitio Do Benvenuto / Da Barrigada,Praça,Rua Jupiacara/Rua Caturite/ Rua Santa Rosa,72982.0,,Praça do Sítio Benvenuto,"463,1647444","117,9225232",817,San Martin,-8.075344456,-34.92555684,463.1647444,SAN MARTIN
Sitio Do Benvenuto/ Da Barrigada,Praça,Rua Jupiacara/ Rua Imbituba/ Rua Caturite,72982.0,,Praça do Sítio Benvenuto,"467,9334631","119,1298583",817,San Martin,-8.075233289,-34.92502221,467.9334631,SAN MARTIN
Sitio Do Da Barrigada,Praça,Rua Jupiacara/ Rua Santo Angelo/ Rua Imbituba,72982.0,,Praça do Sítio Benvenuto,"469,3597196","117,5599305",817,San Martin,-8.075122195,-34.9244936,469.3597196,SAN MARTIN
Abelardo Baltar,Praça,Rua Comendador Moraes,76821.0,,Praça Abelardo Baltar,"478,1369251","99,01538554",248,Pina,-8.087228836,-34.88271544,478.1369251,PINA
Abelardo Baltar,Praça,Rua Praca Abelardo Baltar,76821.0,,Praça Abelardo Baltar,"72,43711423","38,58860417",248,Pina,-8.087433482,-34.88258653,72.43711423,PINA
Alcides Ferreira Leal/ Do Jordao,Praça,Rua Jose Martorano / Rua Dr Alvaro Ferreira / Rua Lima Campos,76422.0,,Praça do Jordão,"1906,501131","172,8217503",221,Jordao,-8.130504443,-34.938465,1906.501131,JORDAO
Da Luz / Da Fraternidade,Praça,Rua Engenho Araquara / Rua Engenho Timbi / Avenida Rio Sao Francisco,79715.0,,Praça Luz da Fraternidade,"1551,431831","196,3532057",884,Cohab,-8.115080632,-34.95025587,1551.431831,COHAB
Do Terço/ Sebastiao Pontes,Praca,Praca Sebastiao Pontes/Rua Capitao Amaro Cerqueira/Rua Capitao Domingos Costa,79669.0,,Praça Sebastião Pontes,"436,7968459","92,01279404",850,Areias,-8.09759545,-34.93388892,436.7968459,AREIAS
Presidente Kennedy,Praça,Rua Dona Carentina / Rua Miravania,76082.0,,Praça Presidente Kennedy,"2153,473691","204,9515691",221,Jordao,-8.134257824,-34.94174368,2153.473691,JORDAO
São José Do Manguinho,Praça,Rua Confederacao Do Equador/Avenida Rui Barbosa,66494.0,00033/37,Praça São José dos Manguinhos,"340,6164735","120,8453951",167,Gracas,-8.048095165,-34.89890896,340.6164735,GRACAS
Elvira Andrade De Souza,Praça,Rua Paulino Gomes De Souza/Rua Alberto Paiva,66346.0,11444/74,Praça Elvira Andrade de Souza,"773,1669198","111,0765555",167,Gracas,-8.043753544,-34.9012548,773.1669198,GRACAS
Padre Marcelino Champangnat,Praça,Rua Paulino Gomes De Souza,66664.0,10.643/72,Praça Marcelino Champagnat,"967,7103441","119,8765096",167,Gracas,-8.041620727,-34.90053842,967.7103441,GRACAS
Professor Fleming,Praça,Rua Muniz Tavares,66443.0,4346/56,Praça Professor Fleming,"3921,040069","248,7507945",159,Jaqueira,-8.035270957,-34.90591214,3921.040069,JAQUEIRA
Da Jaqueira,Parque,Rua Do Futuro/Rua Deputado Pedro Pires Ferreira/ Avenida Rui Barbosa,73075.0,,Parque da Jaqueira,"71793,04406","1086,864444",159,Jaqueira,-8.036906181,-34.90482213,71793.04406,JAQUEIRA
Casa Forte,Praça,Avenida Dezessete De Agosto,78271.0,,Praça de Casa Forte,"6080,504819","346,3919021",442,Casa Forte,-8.035374529,-34.91975305,6080.504819,CASA FORTE
Alice De Albuiquerque,Praça,Rua Couto Soares/R Adolfo Simoes Barbosa,119962.0,,Praça Alice de Albuquerque,"141,112533","54,02616912",353,Cajueiro,-8.012737276,-34.88380124,141.112533,CAJUEIRO
Casa Forte,Praça,Rua Casa Forte,78271.0,,Praça de Casa Forte,"5590,231542","336,8313741",442,Casa Forte,-8.033866468,-34.91895114,5590.231542,CASA FORTE
Farias Neves,Praça,Rua Dois Irmaos / Avenida Dom Manoel De Medeiros,81507.0,5958/60,Praça Farias Neves,"8574,791972","419,8183859",590,Dois Irmaos,-8.015644143,-34.94419349,8574.791972,DOIS IRMAOS
Do Trabalho,Praça,Avenida Norte Miguel Arraes De Alencar/ Rua Fernando De Souza Caete,67032.0,01483/25,Praça do Trabalho,"2070,318675","222,0826299",434,Casa Amarela,-8.023225392,-34.91452741,2070.318675,CASA AMARELA
Batista Da Silva/ Operário Luis Da Hora,Praca,Rua Prof Trajano De Mendonca/ R Jose Bonifacio,66125.0,09310/64,Praça Batista da Silva,"216,9910213","69,45986947",655,Torre,-8.042476011,-34.90834573,216.9910213,TORRE
Ponte D Uchoa,Praça,Avenida Rui Barbosa/ Rua Madre Loyola/ Rua Antonio Celso Uchoa Cavalcanti,66788.0,,Praça Ponte D`Uchoa,"485,2880827","107,2731751",159,Jaqueira,-8.041396064,-34.9033467,485.2880827,JAQUEIRA
Barão De Caiara,Praca,Rua Afonso De Albuquerque De Melo/Rua Leonardo Bezerra Cavalcante,13234.0,1.663/54,Praça Barão de Caiara,"2437,637829","211,6045652",450,Santana,-8.038067213,-34.91098217,2437.637829,SANTANA
Ascenso Ferreira,Praça,Avenida Rio Branco/Rua Madre Deus,109517.0,,Praça Ascenço Ferreira,"293,9870404","71,93870429",19,Recife,-8.06255675,-34.8736634,293.9870404,RECIFE
Da Convenção,Praça,Avenida Beberibe,66265.0,00237/33,Praça da Convenção,"149,8691971","55,49090201",370,Beberibe,-8.003341827,-34.89751891,149.8691971,BEBERIBE
Vinte De Julho,Praça,Marques De Baipendi,95532.0,10.149/69,Praça Vinte de Julho,"726,4894225","111,6956388",280,Campo Grande,-8.025503039,-34.87881908,726.4894225,CAMPO GRANDE
Vinte De Julho,Praça,Rua Marques De Baipendi/Rua Cirilino Afonso De Melo,95532.0,10.149/69,Praça Vinte de Julho,"633,5166977","127,1056206",280,Campo Grande,-8.025687475,-34.87890863,633.5166977,CAMPO GRANDE
Vinte De Julho,Praça,Rua Carlindo Afonso De Melo/Rua Farias Neves/Rua Tenente Guimaraes,95532.0,10.149/69,Praça Vinte de Julho,"2588,241316","197,1373416",280,Campo Grande,-8.025966409,-34.8788127,2588.241316,CAMPO GRANDE
Bom Pastor,Praça,Rua Bom Pastor/ Avenida Mucio Uchoa Cavalcanti,66087.0,,Praça do Bom Pastor,"5969,548876","400,9071405",698,Iputinga,-8.048658972,-34.94001791,5969.548876,IPUTINGA
Simão Borba,Praça,Rua Simao Borba/ Rua Parente Viana/Rua Ernesto Nazareth,70432.0,,Praça Simão Borba,"1896,804067","193,1336635",850,Areias,-8.096811109,-34.92477434,1896.804067,AREIAS
Jules Rimet/1º Jardim De Boa Viagem,Praça,Avenida Boa Viagem,29130.0,10266/70,Praça Jules Rimet,"1703,498709","352,6030181",205,Boa Viagem,-8.101686472,-34.8854526,1703.498709,BOA VIAGEM
,Area Verde,Avenida Governador Agamenon Magalhaes,,,,"4456,830917","430,5931178",108,Santo Amaro,-8.042215097,-34.88329789,4456.830917,SANTO AMARO
La Corunã / 2ª Jardim De Boa Viagem,Praça,Avenida Boa Viagem,66060.0,14469/82,Praça La Coruna,"7110,311551","537,0944197",205,Boa Viagem,-8.104925343,-34.88705959,7110.311551,BOA VIAGEM
Parque Infantil Walt Disney,Praça,Rua Zeferino Galvao,75043.0,10110/73,Parque Infantil Walt Disney,"1372,87394","151,103309",205,Boa Viagem,-8.107954945,-34.88907809,1372.87394,BOA VIAGEM
Cidade Do Porto,Praça,Avenida Conselheiro Aguiar / Rua Senador Helio Coutinho,79766.0,14665/84,Praça Cidade do Porto,"734,8505691","123,35874",205,Boa Viagem,-8.105831462,-34.88912514,734.8505691,BOA VIAGEM
Cidade Do Porto,Praça,Avenida Conselheiro Aguiar / Rua Jornalista Francisco Almeida,79766.0,14665/84,Praça Cidade do Porto,"606,0991014","94,86623274",205,Boa Viagem,-8.10641352,-34.88937024,606.0991014,BOA VIAGEM
Cidade Do Porto,Praça,Avenida Cons Aguiar / Rua Sen Helio Coutinho / Avenida Eng Domingos Ferreira / Rua Jorn Francisco Almeida,79766.0,14665/84,Praça Cidade do Porto,"2255,338994","199,061774",205,Boa Viagem,-8.106038844,-34.88944621,2255.338994,BOA VIAGEM
Visconde De Mauá,Praça,Rua Barao Da Vitória,66745.0,,Praça Visconde de Mauá,"1337,577999","157,947137",27,Santo Antonio,-8.066949294,-34.88301092,1337.577999,SANTO ANTONIO
Visconde De Mauá,Praça,Rua Regueira Costa/ Rua Gal Abreu E Lima,66745.0,,Praça Visconde de Mauá,"549,5504151","105,9155867",183,Rosarinho,-8.032290771,-34.89841292,549.5504151,ROSARINHO
Artur Oscar / Arsenal De Marinha,Praça,Rua Da Guia / Rua Do Observatório,65870.0,,Praça Arsenal da Marinha,"2900,795794","209,5647739",19,Recife,-8.061041053,-34.87128455,2900.795794,RECIFE
Treze De Maio,Parque,Rua Da Saudade/ Rua Joao Lima/Rua Do Hospicio,67024.0,,Parque Treze de Maio,"70434,49974","1060,155433",108,Santo Amaro,-8.056972105,-34.8815344,70434.49974,SANTO AMARO
Da Convenção,Praça,Avenida Beberibe,66265.0,00237/33,Praça da Convenção,"1990,030653","245,5621183",370,Beberibe,-8.002903481,-34.89772051,1990.030653,BEBERIBE
Da Convenção,Praça,Rua Praca Da Convencao,66265.0,00237/33,Praça da Convenção,"328,6442029","93,0640377",370,Beberibe,-8.002374716,-34.89726771,328.6442029,BEBERIBE
Do Berardo,Praça,Rua Joao Crescencio/Ricardo Salazar/Adolfo Criacao Antonio De S,122076.0,,Praça do Berardo,"559,8748705","83,88363428",647,Madalena,-8.05663446,-34.91250896,559.8748705,MADALENA
Beatriz Pereira Carneiro,Praça,Rua Dona Sinha Menezes/ R Dona Leonor Porto,66095.0,00274/41,Praça Beatriz Pereira Carneiro,"415,2766616","77,37297459",108,Santo Amaro,-8.040415151,-34.87065066,415.2766616,SANTO AMARO
Prof. Agamenon Magalhães,Praça,Avenida Norte Miguel Arraes De Alencar/ Rua Joaquim Rabelo,65951.0,13.894/79,Praça Professor Agamenon Magalhães,"572,2265889","91,56246707",108,Santo Amaro,-8.043876748,-34.88213478,572.2265889,SANTO AMARO
Ministro Joao Gonçalves De Souza/ Gaspar Perez,Praça,Rua Borges Da Fonseca/Rua General Vargas,89451.0,13739/79,Praça Ministro João Gonçalves de Souza,"4086,301839","314,9711285",698,Iputinga,-8.048164548,-34.94373587,4086.301839,IPUTINGA
Forte Do Arraial Novo Do Bom Jesus,Parque,Rua Antonio Valdevino Costa/Est Do A Novo Do B Jesus/R Maravilha/ R Dezesseis De Outubro,55611.0,08822/62,Parque do Forte do Arraial Novo do Bom Jesus,"16762,7938","535,48799",701,Torroes,-8.05849178,-34.93190824,16762.7938,TORROES
Forte Do Arraial Novo Do Bom Jesus,Parque,Rua Profa Laura Ferreira Da Costa/Est Do Forte Do Arraial N Do Bom Jesus/R Antonio Valdevino Costa,55611.0,08822/62,Parque do Forte do Arraial Novo do Bom Jesus,"25119,09718","829,7871632",680,Cordeiro,-8.056643274,-34.93093265,25119.09718,CORDEIRO
Eça De Queiroz,Praça,Rua Januario Barbosa/Avenida Visconde De Albuquerque/R Des Luiz Salazar / Rua Pessoa De Melo,66400.0,07413/61,Praça Eça de Queiroz,"2040,910809","196,034964",647,Madalena,-8.050718298,-34.90697695,2040.910809,MADALENA
Solange Pinto Melo,Praça,Rua Real Da Torre/ Rua Jose Osorio,66966.0,10725/76,Praça Solange Pinto Melo,"6358,531078","511,4746673",647,Madalena,-8.052486506,-34.90866922,6358.531078,MADALENA
Solange Pinto Melo,Praça,Rua Jose Osorio/ Rua Real Da Torre,66966.0,10725/76,Praça Solange Pinto Melo,"1227,116597","260,6036692",647,Madalena,-8.054042493,-34.90886132,1227.116597,MADALENA
Tobias Vitorino,Praça,Rua Barao De Tracunhaem/R Dr Paulo Ramos/ R Luiz Clericuzzi,63045.0,1607195,Praça Tobias Vitorino da Silva,"741,9249354","96,6305734",353,Cajueiro,-8.012621221,-34.88648683,741.9249354,CAJUEIRO
Da Redenção,Praça,Rua Antonio Borges Uchoa/ Praca Da Redencao,88269.0,,Praça da Redenção,"472,8294025","100,5396734",710,Engenho Do Meio,-8.055797033,-34.9457789,472.8294025,ENGENHO DO MEIO
Domingos Giovaneti,Praça,Avenida Beira Rio/ R Padre Anchieta/ R Clovis Bevilacua,66338.0,03263/59,Praça Domingos Giovanetti,"2061,912722","226,5622878",647,Madalena,-8.047287513,-34.90435936,2061.912722,MADALENA
Astério Rufino Alves/ Da Estância/Professora Julieta Moura,Praça,Avenida Estancia/Rua Barros Sobrinho/Rua Dr Adelino Filho,98655.0,12237/76,Praça Astério Rufino Alves,"601,2742232","110,6864634",850,Areias,-8.086152993,-34.93252543,601.2742232,AREIAS
Luiz Gonzaga,Praça,Rua Engenho Boa Sorte / Rua Engenhjo Barro Alto / Rua Engenho Tabare / Rua Engenho Curralinho,11495.0,16868/03,Praça Luiz Gonzaga,"952,3527457","116,198888",884,Cohab,-8.114512026,-34.95083597,952.3527457,COHAB
Tertuliano  Feitosa,Praça,Rua Ascenso Ferreira/Rua Carlos Fernandes/R Nogueira Limar Fonseca Oliveira,67016.0,01847/52,Praça Tertuliano Feitosa,"12538,28373","467,7275739",302,Hipodromo,-8.031892077,-34.88655079,12538.28373,HIPODROMO
Ulisses Leon De Oliveira/ Men De Sa,Praça,Rua Madre Rosa Gatorno/Rua Marques De Baipendi/R Prof Jeronimo Gueiros,67040.0,1010/68,Praça Ulisses Leon de Oliveira,"2229,781496","203,6117223",302,Hipodromo,-8.02933478,-34.88946523,2229.781496,HIPODROMO
Vereador Antonio Luiz Neto,Praça,Rua Dr Raimundo Cavalcanti  Uchoa/ Avenida Prof Jose Dos Anjos/ Rua Petronila Botelho,89427.0,10099/69,Praça Antônio Luiz,"6854,444744","444,795513",930,Ponto De Parada,-8.028152063,-34.89072248,6854.444744,PONTO DE PARADA
Professor Luiz Inácio Pessoa De Melo,Praça,Avenida Santos Dumont/R Couto Magalhaes//Rua Jose Alexandre Cacador,66613.0,11203/73,Praça Luiz Inácio Pessoa de Mello,"1514,688478","174,9401662",930,Ponto De Parada,-8.030706977,-34.89487228,1514.688478,PONTO DE PARADA
Phaelante Da Câmara,Praça,Avenida Norte/Avenida Santos Dumont,66818.0,06242/63,Praça Phaelante da Câmara,"2535,501914","204,9571535",183,Rosarinho,-8.033021471,-34.89645357,2535.501914,ROSARINHO
Amaro Albino Pimentel,Praça,Avenida Eng. Agamenon Magalhães De Melo / Rua Canapolis,95230.0,14182/80,Praça Amaro Albino Pimentel,"1927,377072","240,2245759",191,Tamarineira,-8.029928162,-34.89786528,1927.377072,TAMARINEIRA
Jose Sales Filho/ Ponte Da Torre,Praça,Avenida Beira Rio,89460.0,13531/78,Praça José Sales Filho,"2203,347699","234,5759987",655,Torre,-8.045159731,-34.9046566,2203.347699,TORRE
Professor Coelho De Almeida,Praça,Avenida Caxanga/Avenida Mario Alvares Pereira De Lyra/R Cons Silveira De Souza/R Prof Coelho De Almeida,66206.0,02101/53,Praça Professor Coelho de Almeida,"4519,802419","319,5509154",698,Iputinga,-8.045449563,-34.93159909,4519.802419,IPUTINGA
Pinto Damaso Da Varzea,Praça,Avenida Afonso Olindense/Rua Coronel Pacheco/ Prc Pinto Damaso,66834.0,00053/95,Praça Pinto Damaso,"1703,675725","163,736955",736,Varzea,-8.048372188,-34.95930836,1703.675725,VARZEA
Manuel Markman,Praca,Rua Joao Tude De Melo/Rua Leonardo Bezerra Cavalcante,6971.0,1578893,Praça Manuel Markman,"1150,677973","306,9485043",469,Parnamirim,-8.036473407,-34.90945407,1150.677973,PARNAMIRIM
Pinto Damaso Da Varzea,Praça,Avenida Afonso Olindense /Rua Azeredo Coutinho/Rua Coronel Pacheco,66834.0,00053/95,Praça Pinto Damaso,"6638,082271","344,2474567",736,Varzea,-8.049159781,-34.9594845,6638.082271,VARZEA
Do Caxanga,Praça,Avenida Caxanga/ Praca Do Caxanga,66168.0,,Praça do Caxanga,"1895,99331","205,5588169",744,Caxanga,-8.031182701,-34.95495451,1895.99331,CAXANGA
Frei Caneca,Praça,Rua Imperial/Avenida Sul,,,,"3084,265215","274,8852177",35,Sao Jose,-8.072316377,-34.88172272,3084.265215,SAO JOSE
Joao Xxiii,Praça,Rua Itauna/ Rua Maranguape,118699.0,15606/92,Praça João Vinte e Três,"1077,288239","207,643102",752,Curado,-8.083224468,-34.95535994,1077.288239,CURADO
Mercia De Albuquerque,Praça,Rua Capitao Manuel De Aguiar/Rua Capitao Francisco Coutinho/Rua Capitao Sebastiao Ferreira,74314.0,,Praça Mercia de Albuquerque,"1612,206414","157,4365621",850,Areias,-8.095123619,-34.93238217,1612.206414,AREIAS
Olavo Bilac,Praca,Rua Do Hospicio/ Rua Do Principe,119725.0,14478/82,Praça Olavo Bilac,"3360,559604","435,4005371",108,Santo Amaro,-8.057103901,-34.88299549,3360.559604,SANTO AMARO
Des. Carlos Xavier Paes Barreto/Pais E Filhos,Praça,Rua Vicente Licinio/ Avenida Senador Robert Kennedy/ R Manoel Bekmann/ Rua Anita Garibaldi,98566.0,15961/94,Praça Desembargador Carlos Xavier Paes Barreto,"1596,810785","157,1561337",213,Ipsep,-8.118049717,-34.92051981,1596.810785,IPSEP
Aleixo De Oliveira,Praça,Rua Aristides Lobo/Rua Adolfo Faro/Rua Helio Brandao,65994.0,02863/54,Praça Aleixo de Oliveira,"9872,531916","444,0994093",213,Ipsep,-8.112473679,-34.92441046,9872.531916,IPSEP
Sebastião Malta/ Sesquicentenário,Praça,Rua Alberto Lundgren / Avenida Dona Carentina / Avenida Governador Roberto Silveira,66931.0,10551/72,Praça Sebastião Malta,"3025,505849","208,3029448",221,Jordao,-8.136669744,-34.9369309,3025.505849,JORDAO
Marcantonio Vilaca/ Das Cassuarinas,Praça,Rua Alexandrino Martins Rodrigues / Rua Joaquim Carneiro Da Silva / Rua Mario Gomes De Matos,75035.0,16606/00,Praça Marcantônio Vilaça,"7929,669573","380,7024437",248,Pina,-8.098990627,-34.88932383,7929.669573,PINA
Brigadeiro Ivo Borges/ Seleção 70,Praça,Avenida Armindo Moura / R Capitao Lopes Braganca / R Eugenio Coimbra Junior/R General Charles De Gaulle,89494.0,10.367/71,Praça Selecao 70,"5433,435654","312,3651693",205,Boa Viagem,-8.150688881,-34.91047983,5433.435654,BOA VIAGEM
Da Rua Carlos Gomes / Do Cavalo Dourado,Praça,Rua Gomes Taborda / R Carlos Gomes,119784.0,,Praça da Rua Carlos Gomes/ do Cavalo Dourado,"228,4562746","53,58246286",663,Prado,-8.059028696,-34.91222267,228.4562746,PRADO
Do Derby,Praça,Avenida Governador Agamenon Magalhaes/Rua Jener De Souza,66290.0,,Praça do Derby,"13334,32713","508,0785719",140,Derby,-8.056286413,-34.89910823,13334.32713,DERBY
Do Derby,Praça,Avenida Governador Agamenon Magalhaes/Rua Jener De Souza,66290.0,,Praça do Derby,"13021,8582","496,0345482",140,Derby,-8.057136516,-34.89908761,13021.8582,DERBY
Poeta Fernando Pessoa/Nossa Senhora De Fátima,Praca,Rua Amaro Bezerra,15369.0,15268/89,Praça Poeta Fernando Pessoa,"1362,496282","149,2592532",140,Derby,-8.055958926,-34.90106576,1362.496282,DERBY
Correia De Araujo / Do Entroncamento,Praça,Avenida Rui Barbosa/Avenida Cons Rosa E Silva,66370.0,00033/37,Praça do Entroncamento,"5841,829382","371,3801656",167,Gracas,-8.050457829,-34.897231,5841.829382,GRACAS
Da Feb (Força Expedicionaria Brasileira),Praça,Rua Quarenta E Oito / Rua Amapa,66435.0,00579/49,Praça da FEB,"1203,000481","189,6741944",132,Aflitos,-8.040594222,-34.89473909,1203.000481,AFLITOS
Capiba,Praça,Rua Manoel Brandao/R Urca / Para,100501.0,16897/03,Praça Capiba,"1716,461909","259,5106646",353,Cajueiro,-8.009030103,-34.88522124,1716.461909,CAJUEIRO
Onze De Junho,Praça,Rua Moraes De Inhama/Avenida Cruz Cabuga/Rua Dona Leonor Porto,66753.0,,Praça Onze de Junho,"9271,832019","451,6879406",108,Santo Amaro,-8.044146364,-34.87414291,9271.832019,SANTO AMARO
Onze De Junho,Praça,Avenida Prefeitom Artur Lima Cavalcanti,66753.0,,Praça Onze de Junho,"1132,427383","149,8534553",108,Santo Amaro,-8.045000556,-34.87471854,1132.427383,SANTO AMARO
Melvin Jones,Praça,Rua Padre Roma/Rua Sebastiao Malta Arcoverde,66656.0,09765/67,Praça Melvin Jones,"901,3195872","149,8376561",469,Parnamirim,-8.033058472,-34.90728339,901.3195872,PARNAMIRIM
Mano Teodosio,Praça,Estra Real Do Poco,96784.0,15630/92,Praça Mano Teodósio,"70,8079734","36,81935482",477,Poco,-8.036080917,-34.92464338,70.8079734,POCO
De Apipucos,Praça,Rua Apipucos  / Rua Alianca,108839.0,,Praça de Apipucos,"1448,202254","243,5215948",507,Apipucos,-8.020943313,-34.93562139,1448.202254,APIPUCOS
Vila Do Moinho,Praça,Estrada De Belem/Rua Castro Alves,77232.0,,Praça Vila do Moinho Recife,"210,3218416","69,95004306",175,Encruzilhada,-8.037152315,-34.89067859,210.3218416,ENCRUZILHADA
Othon Bezerra De Melo,Praça,Rua Regina/ Rua Ana/ Rua Ida,66770.0,06397/60,Praça Othon Bezerra de Melo,"1060,21374","115,4269351",582,Macaxeira,-8.015465916,-34.92860365,1060.21374,MACAXEIRA
Largo Da Encruzilhada,Praça,Avenida Joao De Barros/Rua Dr Jose Maria/Avenida Beberibe,21415.0,,Largo da Encruzilhada,"1718,357169","265,1192845",175,Encruzilhada,-8.037350908,-34.89142217,1718.357169,ENCRUZILHADA
Professor Ageu Magalhães,Praça,Rua Jenner De Souza,65897.0,02359/55,Praça Professor Ageu Magalhães,"649,8328252","106,7952819",140,Derby,-8.05733666,-34.90025304,649.8328252,DERBY
Manuel Markman,Praca,Joao Tude De Melo,6971.0,1578893,Praça Manuel Markman,"1021,657241","169,4780011",469,Parnamirim,-8.036620728,-34.90947217,1021.657241,PARNAMIRIM
Jose Sales Filho,Praca,Avenida Beira Rio,89460.0,13531/78,Praça José Sales Filho,"1603,94372","182,9870197",655,Torre,-8.044528018,-34.90482779,1603.94372,TORRE
Doutor Pedro Alves Neto,Praça,Avenida Beberibe/ Rua Da Regeneracao,120154.0,16068/95,Praça Doutor Pedro Alves Neto,"198,166606","65,58093217",337,Agua Fria,-8.018591518,-34.89320584,198.166606,AGUA FRIA
Doutor Pedro Alves Neto,Praça,Avenida Beberibe/ Rua Dr Eudes Costa,120154.0,16068/95,Praça Doutor Pedro Alves Neto,"227,2885913","72,23527866",337,Agua Fria,-8.01839404,-34.89336753,227.2885913,AGUA FRIA
Profeta Joseph Smith,Praça,Avenida Engenheiro Domingos Ferreira,86487.0,14706/85,Praça Profeta Joseph Smith,"804,7101549","199,8434613",248,Pina,-8.098106912,-34.88634993,804.7101549,PINA
Professor Dr Antonio Figueira/ Estrada Real Do Poco,Praça,Estrada Real Do Poco,78255.0,16855/03,Praça Professor Doutor Antônio Figueira,"358,8856272","80,66643556",477,Poco,-8.03549863,-34.92324247,358.8856272,POCO
Josenildo Paes Barreto,Praça,Rua Joao Elisio Ramos/ Rua Dr Joao Marques,75175.0,15107/88,Praça Josenildo Paes Barreto,"484,3838078","85,55103956",760,Ilha Do Retiro,-8.06303777,-34.90501267,484.3838078,ILHA DO RETIRO
Dom  Miguel  Valverde,Praça,Rua Amaro Coutinho/Rua Fernando Cesar/R Inacio Galvao Dos Santos,66699.0,5463/59,Praça Dom Miguel Valverde,"3166,228127","260,3353836",175,Encruzilhada,-8.03553322,-34.89271976,3166.228127,ENCRUZILHADA
Abc,Praça,Rua Jose Bezerra Cavalcante/Avenida Manoel Goncalves Da Paz/R Jetucupapo/R Neto Campelo Junior,119687.0,10531/72,Praça A.B.C,"5212,5892","304,1139393",787,Mustardinha,-8.073494139,-34.91860271,5212.5892,MUSTARDINHA
Jornalista Antônio Teixeira Junior,Praça,Avenida Engenheiro Domingos Ferreira / Rua Viscinde De Jequitinhonha,119695.0,14.518/83,Praça Jornalista Antônio Teixeira Junior,"1020,981431","144,5287282",205,Boa Viagem,-8.129670524,-34.90246713,1020.981431,BOA VIAGEM
Alberto Pinto,Praça,Rua Arnobio Marques/ Avenida Agamenon  Magalhaes,119679.0,13698/79,Praça Alberto Pinto,"2083,579927","196,662",108,Santo Amaro,-8.045053479,-34.88864,2083.579927,SANTO AMARO
Faca Cega,Praça,Rua Currais Novos / Rua Guama / Rua Gurupa / Rua Mecejana,119733.0,,Praça Faca Cega,"649,8076224","101,8895872",884,Cohab,-8.119843092,-34.95611551,649.8076224,COHAB
Da  Rua Dr Julio Campelo,Praça,Rua Dr Julio Campelo/Rlucilo Varejao/ Rua Jose Pessoa De Queiroz,119750.0,,Praça Doutor Júlio Campelo,"318,2000338","79,48062686",698,Iputinga,-8.032431242,-34.93133529,318.2000338,IPUTINGA
Jornalista Otávio Sarmento Cardoso/Coliseu,Praça,Rua Prof Otavio Sarmento Cardoso/ R Torres Gomes/ R Dr Jose Munguba Sobrinho,119768.0,,Praça Jornalista Otávio Sarmento Cardoso/Coliseu,"246,0770681","70,80642795",736,Varzea,-8.037252355,-34.95602863,246.0770681,VARZEA
Angélica,Praça,Rua Angelica/ Rua Claudio Brotherhood,119776.0,,Praça Angélica,"551,8575551","103,2263689",680,Cordeiro,-8.053687749,-34.93151417,551.8575551,CORDEIRO
Movicar,Praça,Rua Capitao Joao Lopes/R Capitao Vicente Moutinho/R Capitao Jeronimo Amaral,119792.0,,Praça Movicar,"1906,669984","172,7378119",850,Areias,-8.093465192,-34.93254057,1906.669984,AREIAS
Das Crianças,Praça,Rua Luiz Sepulveda/Rua Capitao Paulo Teixeira/Rua Capitao Domingos Da Costa,119806.0,,Praça das Criancas,"5563,874378","367,0164975",850,Areias,-8.098665789,-34.93360387,5563.874378,AREIAS
Pedro Brandão,Praça,Rua Jeronimo Inojosa/Rua Sargento Afonso Rodrigues/R Francisco Do Rego/R Capitao Francisco Da Rocha,119814.0,,Praça Pedro Brandão,"1600,907408","154,5103328",850,Areias,-8.097704971,-34.93173386,1600.907408,AREIAS
Eduardo Cardoso/Gregorio Albuquerque,Praça,Rua Alvaro Fragoso/R Bento Teixeira/R Capitao Gregorio De Albuquerque/Trv Capitao G De Albuquerque,119822.0,,Praça Eduardo Cardoso/Gregório Albuquerque,"7385,393837","403,7780218",850,Areias,-8.09643717,-34.93142046,7385.393837,AREIAS
Irmã Douraci,Praça,Largo Da Mustardinha/Avenida Manoel Goncalves Da Paz/,119849.0,,Praça Irmã Douraci,"615,1753193","100,255174",787,Mustardinha,-8.07181677,-34.91832397,615.1753193,MUSTARDINHA
El Salvador,Praça,Avenida Sao Paulo,119865.0,,Praça El Salvador,"158,2687097","56,59002081",868,Jardim Sao Paulo,-8.076677599,-34.94207711,158.2687097,JARDIM SAO PAULO
Noel Rodrigues,Praça,Rua Guy Bastos Junior/ R Comendador Franco Ferreira/Trv Comendador F Ferreira/ Avenida General San Martin,119881.0,,Praça Noel Rodrigues,"3222,074603","252,5391923",817,San Martin,-8.067143641,-34.92752222,3222.074603,SAN MARTIN
Noel Rodrigues,Praça,Rua Guy Bastos Junio/ Rua Comendador Franco Ferreira/ Avenida General San Martin,119881.0,,Praça Noel Rodrigues,"961,6499243","128,0668166",817,San Martin,-8.066568087,-34.92736969,961.6499243,SAN MARTIN
Dom Bosco,Praça,Rua Mineirolandia/Rua Tenente Mindelo,119890.0,,Praça Dom Bosco,"130,0923685","51,46351917",817,San Martin,-8.075048933,-34.9299451,130.0923685,SAN MARTIN
Nossa Senhora De Fátima,Praça,Rua Professor Silvio Da Cunha Santos/R Dr Telesphoro Fragoso/Rua Pedro Melo,119903.0,,Praça Nossa Senhora de Fátima,"1324,103831","188,0204128",817,San Martin,-8.072333057,-34.93061711,1324.103831,SAN MARTIN
Professora Antonia Galvão,Praça,Rua Alegre / R Julio Ramos/ Rua Zeferino Agra,119920.0,,Praça professora Antonia Galvão,"269,0575661","74,04703771",337,Agua Fria,-8.021164799,-34.89318526,269.0575661,AGUA FRIA
Desenhista Eulino Santos,Praça,Rua Da Regeneracao/R Desenhista Eulino Santos,119938.0,,Praça desenhista Eulino Santos,"1439,129443","204,7189888",329,Arruda,-8.022917866,-34.88311476,1439.129443,ARRUDA
Do Cajueiro,Praça,Rua Tenente Wanderley/R Maria Cristina Tasso De Souza/R Couto Soares,119946.0,,Praça do Cajueiro,"1123,398111","147,4336388",353,Cajueiro,-8.01281867,-34.88307815,1123.398111,CAJUEIRO
Sementes Do Amanhã,Praça,Avenida Sebastiao Salazar/ Rua Couto Soares,119954.0,,Praça Sementes do Amanhã,"226,0414424","61,83185874",310,Campina Do Barreto,-8.013098914,-34.88177275,226.0414424,CAMPINA DO BARRETO
Do Colégio Jarbas Pernambucano,Praça,Avenida Sebastiao Salazar/ Rua Barao De Tamandare,119970.0,,Praça do Colégio Jarbas Pernambucano,"802,8852493","110,9358189",353,Cajueiro,-8.011087595,-34.88380149,802.8852493,CAJUEIRO
Lagoa Do Araça,Parque,Rua Jose Ferreira Lins / Rua Engenheiro Jose Brandao Cavalcante,124273.0,,Praça Lagoa do Araça,"148288,3743","1509,688659",264,Imbiribeira,-8.094360461,-34.91491461,148288.3743,IMBIRIBEIRA
Radio Capibaribe,Praça,Rua Coronel Urbano Ribeiro De Sena/Rua Noroeste,119989.0,,Praça Rádio Capibaribe,"1744,478146","165,9812508",310,Campina Do Barreto,-8.014349772,-34.88321901,1744.478146,CAMPINA DO BARRETO
Radio Capibaribe,Praça,Rua Coronel Urbano Ribeiro De Sena,119989.0,,Praça Rádio Capibaribe,"807,3316781","148,7562522",310,Campina Do Barreto,-8.013924604,-34.88304571,807.3316781,CAMPINA DO BARRETO
Da Igreja,Praça,Rua Capitao Pero Miranda,123625.0,,Praça da Igreja,"859,1078349","128,7127723",884,Cohab,-8.129980705,-34.94806974,859.1078349,COHAB
Da Comar,Praça,Rua Joao Cavalcante Petribu/Rua Hidelbrando De Vasconcelos,122025.0,,Praça do Comar,"477,2616045","97,36195339",396,Dois Unidos,-7.990179773,-34.91556605,477.2616045,DOIS UNIDOS
Raizes,Praça,Rua Engenho Bem Querer / Rua Engenho Bela Flor / R Engenho Barra Branca / R Engenho Bela Rosa,122033.0,,Praça Raizes,"667,0092044","98,37639046",884,Cohab,-8.112185887,-34.95060483,667.0092044,COHAB
Da Amizade,Praça,Rua Leila Felix Karam/Rua Dr Aniceto Ribeiro Varejao/R Des Capistrano De Moraes E Silva,122041.0,,Praça da Amizade,"799,5704709","133,0276174",701,Torroes,-8.065087774,-34.93222682,799.5704709,TORROES
Do Fundão,Praça,Avenida Beberibe,122068.0,,Praça do Fundão,"2191,966077","327,127136",345,Fundao,-8.013909336,-34.88944698,2191.966077,FUNDAO
Professor Trajano,Praça,Rua Prof Trajano De Mendonca / R Jose De Holanda / R Real Da Torre,122050.0,,Praça Professor Trajano,"201,0721813","86,48307187",655,Torre,-8.044982837,-34.90996987,201.0721813,TORRE
Sao Francisco De Assis,Praça,Rua Vale Do Siriji /R Vale Do Jaguaribe/ R Soldado Jose Vivancio,122084.0,,Praça São Francisco de Assis,"573,533752","109,3540125",736,Varzea,-8.036490888,-34.9757881,573.533752,VARZEA
Tamarindo,Praça,Rua Engenho Firmeza / Rua Engenho Timbi / Rua Engenho Tabare / Rua Engenho Segredo,122092.0,,Praça Tamarindo,"672,8242585","98,44684556",884,Cohab,-8.114388946,-34.9501783,672.8242585,COHAB
Da Rua Tenente João Mauricio Campos,Praça,Rua Tenente Joao Mauricio Campos / Rua Capitao Luiz Dorneles,122114.0,,Praça  João Maurício Campos,"411,5547959","134,6410842",884,Cohab,-8.121774812,-34.94565974,411.5547959,COHAB
Artur Lima Cavalcanti,Praça,Avenida Prefeito Artur Lima Cavalcanti,122130.0,,Praça Artur Lima Cavalcanti,"1223,656693","149,7739247",108,Santo Amaro,-8.045358016,-34.874266,1223.656693,SANTO AMARO
Da Trv José Leite,Praça,Travessa Jose Leite,122149.0,,Praça da travessa José Leite,"94,73465903","53,02123994",248,Pina,-8.089403777,-34.88886883,94.73465903,PINA
Luiz Americo Willians,Praça,Rua Engenho Belo Prado / Rua Engenho Bom Mirar/R Engenhoc Serra Grande/ Rua Engenho Flor Do Bosque,122157.0,,Praça Luiz Americo Willians,"668,46137","99,29821226",884,Cohab,-8.113285082,-34.95039008,668.46137,COHAB
Joao Rique,Praça,Rua  Joao Rique/Rua Lucilo Varejao/ Rua Des Oscar Coutinho,122165.0,,Praça João Rique,"1415,597416","176,4593521",698,Iputinga,-8.032167777,-34.93204838,1415.597416,IPUTINGA
Jose Maria Do Nascimento Paraiba/ Do Lixão,Praça,Rua Juparana / Rua Codajas / Avenida Valenca,122181.0,,Praça José Maria do Nascimento Paraíba/Lixão,"1618,617645","160,8836723",884,Cohab,-8.119127435,-34.95361817,1618.617645,COHAB
Da Rua Abc,Praça,Rua Abc / Rua Aprigio Alves,122190.0,,Praça da rua ABC,"390,8697151","82,34457549",779,Afogados,-8.082779575,-34.91067924,390.8697151,AFOGADOS
Santa Luzia,Praça,Rua Lupianopolis / Rua Mandaguacu / Rua Manduri / Rua Rio Paracatu,122211.0,,Praca Santa Luzia,"638,0745256","99,45096145",884,Cohab,-8.115719677,-34.95500836,638.0745256,COHAB
Brasilit,Praça,Rua Engenheiro Vasconcelos Bittencourt/ Rua Abatia,122220.0,,Praça Brasilit,"1259,280586","198,3804616",736,Varzea,-8.041706266,-34.95026367,1259.280586,VARZEA
Sabere,Praça,Rua Emeterio Maciel/ Rua Frutuoso Gomes/Trv Frutuoso Gomes,122238.0,,Praça Sabere,"427,7241101","93,5564935",736,Varzea,-8.03727147,-34.95239724,427.7241101,VARZEA
Quitéria,Praça,Rua Joao Francisco Lisboa/Rua Michael Felix Karan/Rua Quiteria,122246.0,,Praça Quitéria,"2407,262041","228,9815356",736,Varzea,-8.052537548,-34.95636268,2407.262041,VARZEA
Carmela Dutra/ Ipiranga,Praça,Rua General Souza Doca/Rua General Guimaraes Cova,122254.0,,Praça Carmela Dutra/Ipiranga,"8145,441642","385,1943452",779,Afogados,-8.078167137,-34.91432807,8145.441642,AFOGADOS
Isabel Cabral,Praça,Rua Vicente Ribeiro De Barros/Rua Luis De Franca Da Costa Cabral,122262.0,,Praça Isabel Cabral,"618,9778664","115,0839779",779,Afogados,-8.080062722,-34.91913278,618.9778664,AFOGADOS
Joaquim Cardoso/ Da Biblioteca,Praça,Rua Francisco Uchoa/Rua Prof Augusto Wanderley Filho/Rua Jacira,122270.0,,Praça Joaquim Cardoso/da Biblioteca,"1912,802965","177,4047017",779,Afogados,-8.082177592,-34.9080519,1912.802965,AFOGADOS
Joao Miguel De Souza Junior I,Praça,R Valdemar Falcao / Avenida Visconde De Sao Leopoldo/R Dom Joao Moura/Trv Valdemar Falcao,122289.0,,Praça João Miguel de Souza Junior,"1176,006711","162,9060915",710,Engenho Do Meio,-8.058880804,-34.94576938,1176.006711,ENGENHO DO MEIO
Joao Miguel De Souza Junior Ii,Praça,Rua Dom Joao Moura/ Trv Valdemar Falcao/ R Jose Dos Santos/Avenida Visconde De Sao Leopoldo,122289.0,,Praça João Miguel de Souza Junior,"460,6567781","116,6631501",710,Engenho Do Meio,-8.059468402,-34.94566536,460.6567781,ENGENHO DO MEIO
Sitio Das Palmeiras,Praça,Rua  Alvaro Texeirade Mesquita/ Rua Bom Pastor /Rua Presidente Washington Luiz,122297.0,,Praça Sítio das Palmeiras,"3579,992972","269,5430054",710,Engenho Do Meio,-8.051317352,-34.93922838,3579.992972,ENGENHO DO MEIO
Maria Sampaio Lucena,Praça,Avenida Pernambuco / Rua Santa Maria Madalena,122300.0,,Praça Maria Sampaio Lucena,"1188,66719","139,9206339",884,Cohab,-8.120939851,-34.94593532,1188.66719,COHAB
Paulo Freire,Praça,Avenida Beira Rio /Rua Demostenes De Olinda,119830.0,,Praça Paulo Freire,"587,5754442","103,4770385",647,Madalena,-8.04977648,-34.90498149,587.5754442,MADALENA
Do Finado Leiteiro,Praça,Rua Serra Bonga / Rua Parintins / Rua Sabara / Rua Paulista,122122.0,,Praça do Finado Leiteiro,"1204,455279","135,7920931",884,Cohab,-8.120234711,-34.94726276,1204.455279,COHAB
Dr Arnaldo Assunção,Parque,Rua Antonio Borges Uchoa/ Rua Antonio Curado/ R Manuel Alves Deusdara / R Governador Lopo Garro,122173.0,,Parque Doutor Arnaldo Assunção,"28171,22471","659,1388628",710,Engenho Do Meio,-8.057223142,-34.94285155,28171.22471,ENGENHO DO MEIO
Coronel Silva Torres,Praça,Rua Coronel Silva Torres (Area Militar),122793.0,,Praça Coronel Silva Torres,"302,6148758","89,10786573",140,Derby,-8.053406687,-34.90355401,302.6148758,DERBY
Da Rua Cordislândia,Praça,Avenida Marechal Cordeiro De Farias/ Rua Cordislandia/ R Cristovao Cavalcanti,122327.0,,Praça da Rua Cordislândia,"683,1630116","138,716029",698,Iputinga,-8.039633133,-34.93494625,683.1630116,IPUTINGA
Da Alegria,Praça,Rua Des Cunha Barreto/ Rua Da Alegria,122335.0,,Praça da Alegria,"87,27662495","33,36986985",86,Boa Vista,-8.063708519,-34.88698962,87.27662495,BOA VISTA
Da Comunidade,Praça,Rua Rio Indaia / Rua Rio Parnaiba / Rua Rio Juruena / Rua Rio Tapajos,122343.0,,Praça da Comunidade,"1202,348231","134,2352612",884,Cohab,-8.116194218,-34.94763521,1202.348231,COHAB
Forte Do Brum,Praça,Avenida Militar,122360.0,,Praça do Forte do Brum,"2525,816098","299,3225987",19,Recife,-8.052791938,-34.87148251,2525.816098,RECIFE
Cívica,Praça,Rua Alexandre Moura/ Avenida Cruz Cabuga,122351.0,,Praça Cívica,"3865,769456","228,128454",108,Santo Amaro,-8.046881037,-34.87599171,3865.769456,SANTO AMARO
Do Escorrego,Praça,Avenida Pernambuco / Rua Rio Arinos / Rua Rio Indaia / Rua Rio Caqueta,122378.0,,Praça do Escorrego,"1268,806039","138,3767645",884,Cohab,-8.11750539,-34.94688157,1268.806039,COHAB
Estevão De Sá,Praça,Avenida Caxanga/ Rua Caxanga Agape,122394.0,,Praça Estevão de Sá,"923,9800845","146,1293509",736,Varzea,-8.036645069,-34.94648015,923.9800845,VARZEA
Da Rua Caxanga Agape,Praça,Avenida Caxanga/Rua Caxanga Agape,122386.0,,Praça da Rua Caxangá Agape,"3628,343617","372,8035613",736,Varzea,-8.036157479,-34.94740386,3628.343617,VARZEA
Herois Da Restauração/ Do Buraco,Praça,Rua Caja/Rua Oiticica Lins/Rua Calumbi /Rua Ipojuca,122424.0,,Praça Herois da Restauração /do Buraco,"9903,512185","391,5153268",850,Areias,-8.097417499,-34.93563583,9903.512185,AREIAS
Cristo Rei,Praça,Rua Sao Fidelis / Rua Diamantino / Rua Joanesia / Rua Marlieria,122416.0,,Praça Cristo Rei,"964,3012094","120,0130238",884,Cohab,-8.120631578,-34.95473409,964.3012094,COHAB
Engenho Poeta / Do Rotary,Praça,Avenida Caxanga/ Rua Pedro Lund,122408.0,,Praça Engenho Poeta/do Rotary,"4659,485191","473,7125944",736,Varzea,-8.034238461,-34.95088649,4659.485191,VARZEA
Monsenhor Arruda Camara,Praça,Rua Antonio Vaz/Rua General Francisco Figueiroa,122440.0,,Praça Monsenhor Arruda Camara,"1546,924287","187,8953178",850,Areias,-8.091585271,-34.93027685,1546.924287,AREIAS
José Cicílio,Praça,Rua Capitao Jeronimo Amaral/ R Capitao Vicente Moutinho/Rua Capitao Amador Rodrigues,122432.0,,Praça José Cicílio,"1801,860228","166,675315",850,Areias,-8.094189484,-34.9332826,1801.860228,AREIAS
Antonio Bezerra Pontes,Praça,Praca Do Sena/Rua Capitao Fernao De Melo/Rua Capitao Domingos Da Costa,122505.0,,Praça Antonio Bezerra Pontes,"664,1367707","121,4061259",850,Areias,-8.096969362,-34.93386564,664.1367707,AREIAS
Da Mentira,Praça,Rua Capitao Amaro Cerqueira/ Rua Sargento Afonso Rodrigues/ R Cap F Da Rocha/ R Cap A Do Rego,122521.0,,Praça da Mentira,"1724,992456","162,267547",850,Areias,-8.096804269,-34.9326179,1724.992456,AREIAS
Da Rua Água Preta,Praça,Rua Gloria Do Goita / Rua Jaboataorua Agua Preta / Rua Lagoa De Itaenga,122467.0,,Praça da Rua Água Preta,"773,5482101","143,1176428",884,Cohab,-8.123178781,-34.94748407,773.5482101,COHAB
Da Vitoria,Praca,Rua Capitao Gregorio De Albuquerque/Avenida Izabel De Goes,122475.0,,Praça da Vtiória,"775,3141317","120,143224",850,Areias,-8.094423466,-34.93421939,775.3141317,AREIAS
Da Avenida Da Recuperação,Praça,Avenida Da Recuperacao,122742.0,,Praça da Avenida da Recuperação,"3999,450181","287,3981918",418,Guabiraba,-7.987094409,-34.93509587,3999.450181,GUABIRABA
Vale Do Siriji,Praça,Rua Vale Do Siriji/ Rua Americo Virgilio,122491.0,,Praça Vale do Siriji,"160,4927067","53,01332547",736,Varzea,-8.036230847,-34.97685972,160.4927067,VARZEA
Da Rua Solanea,Praça,Rua Solanea/ Rua Mundau/ Rua Pirpirituba/ Rua Guaraquebaca,122548.0,,Praça da Rua Solanea,"638,0243932","98,69835482",884,Cohab,-8.116536938,-34.95369235,638.0243932,COHAB
Arlindo Araújo Filho,Praca,Rua Professor José Calazans / 1º Travessa Da Rua Manuel Vieira,122530.0,,Praca Arlindo Araujo Filho,"586,0486615","103,7666092",817,San Martin,-8.070507075,-34.93289333,586.0486615,SAN MARTIN
Cais Edgar Amorim,Praça,Avenida Rui Barbosa,122696.0,,Praça Cais Edgar Amorim,"998,4940163","148,6232686",159,Jaqueira,-8.037148563,-34.90625213,998.4940163,JAQUEIRA
Dona Lindu,Parque,Avenida Boa Viagem,119997.0,17271/06,Parque Dona Lindu,"35964,94082","802,8984853",205,Boa Viagem,-8.14134971,-34.90415197,35964.94082,BOA VIAGEM
Professor Rutilho,Praca,Rua Professor Rutilho/Rua Inaja/Rua Alcantara/Rua Pagy,122653.0,,Praça Professor Rutilho,"325,2233158","79,31402076",922,Coqueiral,-8.088984264,-34.96728722,325.2233158,COQUEIRAL
Professor Rutilho,Praca,Rua Professor Rutilho/Rua Inaja,122653.0,,Praça Professor Rutilho,"285,4649075","112,8570207",922,Coqueiral,-8.088673735,-34.96701413,285.4649075,COQUEIRAL
Simon Bolivar,Praça,Avenida Governador Agamenon Magalhaes/ Avenida Cruz Cabuga,122670.0,,Praça Simon Bolivar,"1872,374536","327,9957765",108,Santo Amaro,-8.03719613,-34.87002708,1872.374536,SANTO AMARO
Simon Bolivar,Praça,Avenida Gov Agamenon Magalaes/ Avenida Cruz Cabuga,122670.0,,Praça Simon Bolivar,"2025,082895","209,4298171",108,Santo Amaro,-8.03754857,-34.87007163,2025.082895,SANTO AMARO
Memorial Arco Verde,Parque,Avenida Agamenon Magalhaes/ Avenida Cruz Cabuga,122661.0,,Praça Memorial Arco Verde,"10339,30283","421,8546651",108,Santo Amaro,-8.036608071,-34.87010932,10339.30283,SANTO AMARO
Memorial Arco Verde,Parque,Avenida Agamenon Magalhaes/ Avenida Cruz Cabuga,122661.0,,Praça Memorial Arco Verde,"10339,30283","421,8546651",280,Campo Grande,-8.03610835,-34.87077364,10339.30283,CAMPO GRANDE
Da Avenida Mauricio De Nassau I,Praca,Avenida Mauricio Da Nassau/Rua Luiz Carlos Guilherme,122688.0,,Praça da Avenida Maurício de Nassau,"785,7192735","126,3127473",680,Cordeiro,-8.043500973,-34.92234616,785.7192735,CORDEIRO
Da Avenida Mauricio De Nassau Ii,Praca,Avenida Mauricio De Nassau/ Rua Luiz Carlos Guilherme,122688.0,,Praça da Avenida Maurício de Nassau,"1691,510173","206,5356382",680,Cordeiro,-8.043888562,-34.92246046,1691.510173,CORDEIRO
Silva Jardim,Praça,Avenida Dezessete De Agosto/ Rua Temporal,122700.0,,Praça Silva Jardim,"150,7621806","50,42578273",485,Monteiro,-8.02777343,-34.92886297,150.7621806,MONTEIRO
Quartel General,Praca,Rua Do Hospicio/ Rua Do Principe,122726.0,,Praça Quartel General,"1080,948019","156,4262318",86,Boa Vista,-8.05811559,-34.88327215,1080.948019,BOA VISTA
Jose Da Mota Silveira,Praça,Rua Arlindo Gouveia/Avenida Beira Rio,122734.0,,Praça José da Mota Silveira,"839,101398","133,9655651",647,Madalena,-8.0564113,-34.90379033,839.101398,MADALENA
Joca Leal,Praça,Largo De Casa Amarela/ Rua Santa Izabel,122750.0,,Praça Joca Leal,"1230,987551","145,1473401",434,Casa Amarela,-8.026715931,-34.91874033,1230.987551,CASA AMARELA
Amaro Lopes / Da Fumaça,Praça,Rua Principal / Rua Monte Horeb,122769.0,,Praça Amaro Lopes/da Fumaça,"345,6430453","78,21207098",523,Alto Jose Do Pinho,-8.023460228,-34.90806016,345.6430453,ALTO JOSE DO PINHO
Sítio Da Trindade/Arraial Velho Do Bom Jesus,Parque,Estrada Do Arraial / Estrada De Entrocamento/Rua Pedro Afonso,122777.0,,Parque Sítio da Trindade/Arraial V. do Bom Jesus,"61042,85109","1200,506821",434,Casa Amarela,-8.030021972,-34.91275685,61042.85109,CASA AMARELA
Jose Bonifacio,Praça,Trv Corrego Do Euclides/R Alto Jose Bonifacio/ R Alto Da Serrinha/R Alto Da Conquista/Rua Sao Jose,122785.0,,Praça José Bonifácio,"1799,408584","189,3714813",540,Alto Jose Bonifacio,-8.012440826,-34.91357212,1799.408584,ALTO JOSE BONIFACIO
Jenner De Souza,Praca,Rua Amaro Bezerra/ R Jenner De Souza,122807.0,,Praça Jenner de Souza,"2697,020853","251,1074424",140,Derby,-8.054924707,-34.90034744,2697.020853,DERBY
Otávio  De Freitas,Praça,Rua Jener De Souza/ Rua Amauri De Medeiros,122815.0,15.310/90,Praça Otávio de Freitas,"5948,34773","308,1315588",140,Derby,-8.057887213,-34.90050161,5948.34773,DERBY
Da Rua José Pimentel,Praça,Rua Jose Pimentel/Rua Candido Portinari/Rua Adolfo Ferreira/Rua Fernando Ferrari,122823.0,,Praça da Rua José Pimentel,"1380,627152","144,7232723",213,Ipsep,-8.114548305,-34.91848104,1380.627152,IPSEP
Largo Dom Luiz,Praça,Largo Dom Luiz / Avenida Norte Miguel Arraes De Alencar,39683.0,10188/69,Largo Dom Luiz,"1197,226956","196,9104419",558,Vasco Da Gama,-8.020885691,-34.91734692,1197.226956,VASCO DA GAMA
General Euler Bents/ Da Sudene,Praça,Rua Jean Emile Favre/Rua Sartunino Meireles/Avenida Raimundo Diniz/Rua Silveira Neto,122831.0,,Praça General Euler Bentes/da Sudene,"5511,929787","324,3389712",213,Ipsep,-8.113887535,-34.92190533,5511.929787,IPSEP
Da Rua  Antonio Aparecido,Praça,Rua Soldado Antonio Aparecido/ Rua Sargrnto Rubens Leite/,122718.0,,Praça do Monteiro,"110,3115835","49,11276012",884,Cohab,-8.127494322,-34.94578104,110.3115835,COHAB
Maria Vitalina Gonçalves Da Rocha / Do Bongi,Praça,Rua Dona Maria Augusta Nogueira/Rua Isaac Markman,122840.0,15319/90,Praça Maria Vitalina Gonçalves da Rocha,"1245,491931","157,2600773",809,Bongi,-8.063929747,-34.92180501,1245.491931,BONGI
Senhor Bartolomeu,Praça,Rua Coronel João Batista Do Rego Barros/ Rua Antonio  Batista De Souza,124052.0,,PRC SENHOR BARTOLOMEU,"2441,237516","204,8035243",582,Macaxeira,-8.017911929,-34.93295864,2441.237516,MACAXEIRA
Da Quadra,Praça,Rua Cassatuba/Rua Catigua,124036.0,,Praça da Quadra,"1555,426488","151,1045879",558,Vasco Da Gama,-8.012731231,-34.92137623,1555.426488,VASCO DA GAMA
Sitio Grande,Praça,Avenida Norte Miguel Arraes,124028.0,,Praça Sitio Grande,"451,611361","157,5727712",493,Alto Do Mandu,-8.019765636,-34.92688557,451.611361,ALTO DO MANDU
Nadir Colaço,Praça,Avenida Norte Miguel Arraes De Alencar/ Rua Ana/ R Pedro Paes De Mendonca,123994.0,,Praça Nadir Colaco,"2649,360826","220,7338513",582,Macaxeira,-8.016750179,-34.92925896,2649.360826,MACAXEIRA
Jose Vieira,Praça,Rua Engenho Carauna/ Rua Manoel Serafim Do Couto,123986.0,,Praça José Vieira,"881,3337946","148,1093809",264,Imbiribeira,-8.087220203,-34.90516133,881.3337946,IMBIRIBEIRA
Jose Vieira,Praça,Rua Engenho Agua Clara/ Rua Manoel Serafim Do Couto,123986.0,,Praça José Vieira,"644,2453277","142,6088285",264,Imbiribeira,-8.086877574,-34.90536075,644.2453277,IMBIRIBEIRA
Da Morena,Praça,Avenida Rio Grande / Rua Rio Jaró / Rua Rio Uruguai,123978.0,,Praça da Morena,"689,6837729","138,84815",884,Cohab,-8.116369718,-34.94830291,689.6837729,COHAB
Da Morena,Praça,Avenida Rio Grande / Rua Rio Gurupí/ Rua  Rio Parauá,123978.0,,Praça da Morena,"834,2104048","198,8630516",884,Cohab,-8.11617109,-34.94890321,834.2104048,COHAB
Campo Do Lagoão,Praça,Rua Dr Cezar Montezuma / Rua Alfredo Martins De Almeida,123943.0,,Praça Campo do Lagoão,"266,6207775","77,87109003",884,Cohab,-8.128845111,-34.95083215,266.6207775,COHAB
Boco-Moco/Da Ur 5,Praça,Rua Joao Joaquim De Mello Filho/R Gal Coelho Cintra/ R Des Thomaz C Wanderley/R Alvarenga Peixoto,123960.0,,Praça Boco-Moco/da UR 5,"844,4557704","112,0257242",884,Cohab,-8.132747044,-34.94970258,844.4557704,COHAB
Nova Esperança,Praça,Rua Nova Alianca (Vila Uniao),123951.0,,Praça Nova Esperança,"3226,833013","234,5224399",698,Iputinga,-8.030824123,-34.93262109,3226.833013,IPUTINGA
Maracangaia,Praça,Rua Guaratuba/Rua Manacapuru/Rua Pirpirituba/Rua Obidos,124311.0,,Praça Maracangaia,"633,4580659","97,09214895",884,Cohab,-8.116811063,-34.9546874,633.4580659,COHAB
Exposição Do Cordeiro,Parque,Avenida Mauricio De Nassau/ Rua Costa Maia/ Avenida Caxanga/ Rua Antero Mota,123927.0,,Parque Exposição do Cordeiro,"160381,4823","1799,914586",680,Cordeiro,-8.044744487,-34.92535678,160381.4823,CORDEIRO
Flor De Cheiro,Praça,Rua Quirinópolis / Rua Currais Novos/ Rua Maua/ Rua Itaperuna/,123919.0,,Praça Flor de Cheiro,"697,760626","102,9298426",884,Cohab,-8.120125345,-34.95710594,697.760626,COHAB
João Felipe Santiago,Praça,Rua Sapucaia / Avenida Santa Fe,123900.0,,Praça João Felipe Santiago,"2176,278751","183,9188923",884,Cohab,-8.118819683,-34.95492513,2176.278751,COHAB
Gonçalo Leitão,Praça,Rua Cientista Nelson Chaves / Rua Capitao Joao De Albuquerque / Rua Goncalo Leitao,122858.0,,Praça Gonçalo Leitão,"1488,511207","155,1105824",884,Cohab,-8.128727997,-34.94708775,1488.511207,COHAB
Da Rua Itacambira,Praça,Rua Itanage/Rua Potengy/Rua Itacambira/Trv Itanage,122866.0,,Praça da rua Itacambira,"5811,734724","310,8062576",213,Ipsep,-8.105712489,-34.91999826,5811.734724,IPSEP
Da Rua Arquiteto Luiz Nunes,Praça,Rua Frederico Lundgren / Rua Olivia Menelau,122874.0,,Praça da Rua Arquiteto Luiz Nunes,"554,2506402","99,99438348",264,Imbiribeira,-8.089276206,-34.91049532,554.2506402,IMBIRIBEIRA
Da Avenida Engenheiro Abdias De Carvalho,Praça,Rua Dr Flavio Ferreira Da Silva Marojo/ Avenida Engenheiro Abdias De Carvalho,122882.0,,Praça da Avenida Engenheiro Abdias de Carvalho,"41709,62016","1418,642127",752,Curado,-8.067910349,-34.93832462,41709.62016,CURADO
Da Avenida Engenheiro Abdias De Carvalho,Praça,Rua Dr Flavio Ferreira Da Silva Marojo/ Avenida Engenheiro Abdias De Carvalho,122882.0,,Praça da Avenida Engenheiro Abdias de Carvalho,"41709,62016","1418,642127",701,Torroes,-8.065952236,-34.93789124,41709.62016,TORROES
Do Largo Da Ponte Do Motocolombo,Praça,Avenida Sul/Avenida Marechal Mascarenhas De Moraes,122904.0,,Praça do Largo da ponte do Motocolombo,"1470,134711","295,9558201",779,Afogados,-8.082850417,-34.90642201,1470.134711,AFOGADOS
Rafael De Oliveira Alves,Praça,Rua Jundiai/ Alca Do Viaduto Da Ceasa,122912.0,,Praça Rafael de Oliveira Alves,"2406,159","344,6494094",868,Jardim Sao Paulo,-8.075239891,-34.94558515,2406.159,JARDIM SAO PAULO
Truaca/ Tempo De Crescer,Praça,Rua Engenho Mata Limpa / R Engenho Terra Vermelha / R Engenho Laje Bonita / R Engenho Pedra Lavrada,122947.0,,Praça Truaca/Tempo de Crescer,"958,128845","117,9995163",884,Cohab,-8.111212827,-34.95146858,958.128845,COHAB
Tempo De Crescer,Praça,Rua Engenho Linda Flor/ Rua Engenho Duas Barras/ R Engenho Laje Bonita,122955.0,,Praça Tempo de Crescer,"701,6276531","103,987811",884,Cohab,-8.111087025,-34.95081999,701.6276531,COHAB
Luiz De Lacerda,Praça,Avenida Luiz De Lacerda/Rua Veneza/Avenida Historiador Jordao Emerenciano,122963.0,,Praça Luiz de Lacerda,"2615,255209","216,9013635",698,Iputinga,-8.036268228,-34.94338123,2615.255209,IPUTINGA
Do Caixito,Praça,Rua Flora Rica /Rua Pedro Boulitreau/ Rua Farroupilha,124265.0,,Praça do Caixito,"2500,843725","197,3032998",817,San Martin,-8.074056853,-34.93108626,2500.843725,SAN MARTIN
Boco Moco,Praça,Rua Afonso Arinos/ R Arq Reinaldo Alves Maia/ R Des Thomaz C  Wanderley/ R Arq Maria Lucia Barbosa,123960.0,,Praça Boco-Moco/da UR 5,"773,3633504","105,6514624",884,Cohab,-8.133478736,-34.95051865,773.3633504,COHAB
Ministro Salgado Filho,Praça,Avenida Marechal Mascarenhas De Moraes,66923.0,,Praça Ministro Salgado Filho,"16155,88813","708,7220395",230,Ibura,-8.133597383,-34.91695028,16155.88813,IBURA
Professor Trajano,Area Verde,Rua Professor Trajano De Mendonca/ Rua Real Da Torre,,,,"1630,029912","175,0107743",655,Torre,-8.044593017,-34.90991802,1630.029912,TORRE
Da Rua Riacho Doce,Praça,Rua Riacho Doce / Rua Engenho Barra Azul / Rua Engenho Bela Vida,124303.0,,Praça da Rua Riacho Doce,"1035,964447","126,5791558",884,Cohab,-8.112307346,-34.95126004,1035.964447,COHAB
Monteiro Lobato,Praça,Rua Pedro Malazarte / Rua Marquês De Rabico / Rua Do Garnize,124290.0,,Praça Monteiro Lobato,"858,6068874","121,4712714",884,Cohab,-8.131932272,-34.94735949,858.6068874,COHAB
Robert Kennedy / Da Juventude,Parque,Rua Frof Nelson Melo/R Estudante Sinval Meira Henrique/Avenida Sen Robert Kennedy/R Dr Ruy L  Cavalcanti,122980.0,,Praça Robert Kennedy/da Juventude,"19089,89439","548,372238",213,Ipsep,-8.116369686,-34.91858583,19089.89439,IPSEP
Da Rua Joao Guilherme,Praça,Rua Jose Pimentel/R Esperidiao Cordeiro De Morais/R Antonio Conselheiro/R Joao Guilherme,124249.0,,Praça da rua João Guilherme,"1356,111848","143,4003905",213,Ipsep,-8.115386499,-34.91944517,1356.111848,IPSEP
Da Rua Junqueira Freire,Praça,Rua Jose D'Emery Carneiro/Rua Albino Reine/R Antonio Conselheiro/Rua Junqueira Freire,122920.0,,Praça da rua Junqueira Freire,"1353,953936","143,0569782",213,Ipsep,-8.116225406,-34.92041192,1353.953936,IPSEP
Da Rua Leonardo Da Vinci,Praça,Rua Leonardo Da Vinci/ Rua Goncalves De Magalhaes/  Rua Bernardino Da Costa,124320.0,,Praça da rua Leonardo da Vinci,"922,3526752","126,5954978",264,Imbiribeira,-8.117564241,-34.91620587,922.3526752,IMBIRIBEIRA
Encanta Moça/ Posto Policial,Praça,Rua Artur Licio,124338.0,,Praça Encanta Moça/Posto Policial,"312,7448059","102,9105233",248,Pina,-8.093072428,-34.88864188,312.7448059,PINA
Nargor Do Carmo,Praça,Rua Engenho Cangaca/ Rua Engenho Carauna/ Rua Engenho Camboinha,,,,"238,8462896","59,69773054",264,Imbiribeira,-8.089104566,-34.90575998,238.8462896,IMBIRIBEIRA
Arquiteta Maria Lucia,Praça,Rua Esdras Farias/Rua Helio Brandao/Rua Americo De Campos/Rua Abdias Cabral De Moura,123455.0,,Praça arquiteta Maria Lucia,"1655,188733","193,3996948",213,Ipsep,-8.103822755,-34.92671357,1655.188733,IPSEP
Mauriceia,Praça,Rua Araraquara/Rua Itaquice/Rua Jean Emile Favre/ Rua Aracatuba,123463.0,,Praca Mauriceia,"3321,672987","228,1329704",213,Ipsep,-8.107793342,-34.91646488,3321.672987,IPSEP
Do Jacaré,Praça,Rua Raul Leoni/ Rua Simoes Neto/ Rua Edward Jenner/ R Deputado Antonio Heraclio,123480.0,,Praça do Jacaré,"847,4175263","116,7881436",264,Imbiribeira,-8.118242401,-34.91781849,847.4175263,IMBIRIBEIRA
Jose D'Emerycarneiro,Praça,Rua Jose D'Emery Carneiro/ R Inez De Castro/R Aristharcho Lopes/R Dr Samuel Hardman C De Albuquerque,123471.0,,Praça Josen Demery Carneiro,"1356,488984","144,2699152",213,Ipsep,-8.117063431,-34.92137852,1356.488984,IPSEP
Lins Do Rego/ Dos Brotos,Praça,Rua Lins Do Rego/ Rua Lopes Trovao/ Rua Paulo De Prontin/ Rua Manuel De Macedo,123498.0,,Praça Lins do Rego/dos Brotos,"839,504624","116,3590438",264,Imbiribeira,-8.118709463,-34.91914364,839.504624,IMBIRIBEIRA
Circular Do Alto Jordao,Praça,Rua Toritama / Avenida Dona Carentina,123528.0,,Praça Circular do Alto Jordão,"459,2242256","83,19132398",221,Jordao,-8.134237437,-34.94381569,459.2242256,JORDAO
Mercado Municipal Da Ur-5,Praça,Rua Dr Otavio Moraes Vasconcelos / Rua Capitao Vicente Curado,123510.0,,Praça Mercado Municipal da UR-5,"2244,732933","195,3386233",884,Cohab,-8.132432675,-34.94882182,2244.732933,COHAB
Da Rua Eliza  Leal Wanderley,Praça,Rua Eliza Leal Wanderley/Rua Deputado Celso Miranda/Rua Alaide Sa Leitao/ Avenida Presidente Dutra,123536.0,,Praça da rua Elza Leal Wanderley,"655,2360626","120,4504733",213,Ipsep,-8.110108388,-34.92662342,655.2360626,IPSEP
Da Rua Rosa M De Melo,Praça,Rua Deputado Edson Moury Fernandes/R Rosa Magalhaes/Avenida Pres Dutra/R Maria Jose Mota Da Silveira,123544.0,,Praça da rua Rosa M. de Melo,"638,6699865","113,3485947",213,Ipsep,-8.108636596,-34.92682751,638.6699865,IPSEP
Do  S,Praça,Avenida Mato Grosso / Rua Rio Ica / Rua Rio Ivo,123552.0,,Praça do S,"134,1514041","49,28275324",884,Cohab,-8.122273432,-34.94705778,134.1514041,COHAB
Todos Os Santos,Praça,Rua Todos Os Santos/ Rua Sepetiba/ Rua Piassabussu/Rua Ilheus,123242.0,,Praça Todos os Santos,"688,6905473","103,9248847",884,Cohab,-8.121080341,-34.95345689,688.6905473,COHAB
Da Rua Jatobá,Praça,Rua Arco Verde / Rua Sao Vicente Ferrer,123587.0,,Praça da Rua Jatobá,"1181,594746","211,8338939",884,Cohab,-8.123667543,-34.94645226,1181.594746,COHAB
Vitoria Do Povo,Praça,Rua Jordania,123579.0,,Praça Vitória do Povo,"2156,2766","180,3525019",884,Cohab,-8.118321894,-34.94616099,2156.2766,COHAB
Geraldo Vilas Boas,Praça,Rua Padre Manuel Ribeiro Da Rocha / R Barbara Heliodora / R Jose Do Patrocinio / R Cupertino Cintra,123560.0,,Praça Geraldo Vilas Boas,"898,4454546","115,1289546",884,Cohab,-8.131276898,-34.94911435,898.4454546,COHAB
Dalva De Oliveira,Praça,Rua Guaranta / Rua Tocantinopolis / Rua Neopolis / Rua Sao Bento Do Una,123595.0,,Praça Dalva de Oliveira,"1279,548747","136,9231118",884,Cohab,-8.116224924,-34.94646448,1279.548747,COHAB
Da Rua Quintino Bocaiuva,Praça,Rua Barao De Jaqui/Rua Comandante Garcia D'Avilla/R Quintino Bocaiuva/R Orestes Barbosa,123609.0,,Praça da rua Quintino Bocaiuva,"1622,526345","157,7818781",213,Ipsep,-8.115533124,-34.91762026,1622.526345,IPSEP
Da Rua Clotilde Machado Ii,Praça,Rua Pintor Antonio Albuquerque/Rua Clotilde Machado/Rua Itacambira,123617.0,,Praça da Rua Clotilde de Machado I e II,"1030,971457","143,1872406",213,Ipsep,-8.107275838,-34.92177898,1030.971457,IPSEP
Da Rua Clotilde Machado  I,Praça,Rua Itacambira/Rua Clotilde Machado/Rua Irapua,123617.0,,Praça da Rua Clotilde de Machado I e II,"1221,103405","150,4829002",213,Ipsep,-8.107671976,-34.92143116,1221.103405,IPSEP
Prof. Jeronimo Gueiros,Praça,Rua Joraci Camargo / Rua Pianco / Rua Santa Agda / Rua Tamara,123633.0,,Praça professor Jeronimo Gueiros,"2806,9584","220,0939214",221,Jordao,-8.13499924,-34.9400395,2806.9584,JORDAO
Da Rua Jose Rodrigues,Praça,Rua Jose Rodrigues,123641.0,,Praça da rua José Rodrigues,"319,7112451","78,89388392",248,Pina,-8.090992837,-34.89257984,319.7112451,PINA
Da Rua Guarabira,Praça,Rua Antonio Paes Barreto/ Rua Jose Da Silva Lucena / Rua Guarabira / Rua Sargento Silvino De Macedo,123650.0,,Praça da rua Guarabira,"4369,880209","261,3782422",264,Imbiribeira,-8.114097516,-34.9074951,4369.880209,IMBIRIBEIRA
Campo De Pelada Carlos Rios,Praça,/ Rua Moacir Albuquerque,123668.0,,Praça Campo de pelada Carlos Rios,"4655,198816","324,1294534",264,Imbiribeira,-8.085727266,-34.91051676,4655.198816,IMBIRIBEIRA
Do Terminal De Ônibus Da Ur-2,Praça,Rua Monica Raposo/ Avenida Santos,123676.0,,Praça do Terminal de ônibus da UR-2,"134,4165693","59,27052889",884,Cohab,-8.114574472,-34.95533183,134.4165693,COHAB
Da Av Senador Robert Kennedy,Praça,Avenida Senador Robert Kennedy/Rua Condessa De Barral/ Rua Joao Ramalho/R Jose Fernandes Portugal,123889.0,,Praça da Avenida Senador Robert Kennedy,"7036,075814","373,1950877",264,Imbiribeira,-8.117619511,-34.91837467,7036.075814,IMBIRIBEIRA
Da Chesf,Praça,Avenida Engenheiro Abdias De Carvalho/ Rua Delmiro Gouveia Rua Quinze De Marco,123501.0,,Praça da CHESF,"15330,68555","563,8253528",701,Torroes,-8.062636847,-34.93095874,15330.68555,TORROES
Do Bueirao,Praça,Rua Barreto Campelo/ Rua Zilda S De Santana,123692.0,,Praça do Bueirão,"9910,705467","398,3720639",655,Torre,-8.046109959,-34.91386863,9910.705467,TORRE
Jacarezinho,Praça,Rua Iguatu/Travessa Garibaldi,123730.0,,Praça Jacarezinho,"1502,539253","157,4161556",310,Campina Do Barreto,-8.018500505,-34.88289503,1502.539253,CAMPINA DO BARRETO
Chao De Estrelas,Praça,Rua Doutor Elias Gomes,123714.0,,Praça Chão de Estrelas,"9859,462253","497,6514423",310,Campina Do Barreto,-8.020573233,-34.87994024,9859.462253,CAMPINA DO BARRETO
Novaes Filho,Praça,Rua Iguatu/ Rua Constanca/ R Coronel Mario  Liborio,123722.0,,Praça Novaes Filho,"11766,57691","469,8948142",310,Campina Do Barreto,-8.016610587,-34.8819309,11766.57691,CAMPINA DO BARRETO
Do Iml,Praça,Rua Engenho Babilonia / Rua Engenho Titara / Rua Engenho Mameluco,122939.0,16457/99,Praça do IML,"387,2821409","92,72932764",884,Cohab,-8.11286166,-34.94932137,387.2821409,COHAB
Getulio Vargas,Praça,Rua Raul Morais/Avenida General San Martin/ Rua Tomaz Gonzaga,123749.0,,Praça Getulio Vargas,"478,3083861","128,3450325",680,Cordeiro,-8.054004913,-34.92272441,478.3083861,CORDEIRO
Santa Lucia,Praça,Avenida Mauricio De Nassau/ R Santa Lucia/ Trv Santa Lucia,123757.0,,Praça Santa Lucia,"374,0356016","77,43181915",698,Iputinga,-8.039151075,-34.93011995,374.0356016,IPUTINGA
Chico Scince,Praça,Avenida Abdias De Carvalho,123773.0,,Praça Chico Scince,"2122,671134","180,6815349",760,Ilha Do Retiro,-8.061929077,-34.90169642,2122.671134,ILHA DO RETIRO
Dr Jose De Melo,Praça,Rua Padre Roma/ Rua Sebastiao Malta Arco Verde/Rua Afonso Celso,123781.0,,Praça Doutor Jose de Melo,"314,9762781","82,22720575",469,Parnamirim,-8.032712668,-34.90740837,314.9762781,PARNAMIRIM
Dr Jose De Melo,Praça,Rua Sebastiao Alves/ Rua Afonso Celso,123781.0,,Praça Doutor Jose de Melo,"123,9371364","53,93551919",191,Tamarineira,-8.032659255,-34.90713144,123.9371364,TAMARINEIRA
Alto Da Serrinha,Praça,Rua Alto Da Serrinha/Rua Alto Do Tiro,123803.0,,Praça Alto da Serrinha,"296,1413762","83,7877403",949,Alto Santa Terezinha,-8.012648303,-34.90931455,296.1413762,ALTO SANTA TEREZINHA
Alto Da Serrinha,Praça,Rua Alto Da Serrinha/Rua Alto Brasil,123803.0,,Praça Alto da Serrinha,"32,65421047","23,36357214",949,Alto Santa Terezinha,-8.012563637,-34.90911644,32.65421047,ALTO SANTA TEREZINHA
Arão Botler,Praça,Avenida Cidade De Monteiro/Rua Arao Botler,123811.0,,Praça Arão Botler,"291,6971462","89,32863098",361,Porto Da Madeira,-8.008670426,-34.88814566,291.6971462,PORTO DA MADEIRA
Treze De Junho,Praça,Avenida Prof Jose Dos Anjoa/ Rua Santos Dumont/R Treze De Junho,123820.0,,Praça Treze de Junho,"152,7096939","68,17119267",183,Rosarinho,-8.028282743,-34.894669,152.7096939,ROSARINHO
Treze De Junho,Praça,Avenida Santoa Dumont/Rua Treze De Junho/Avenida Prof Jose Dos Anjos,123820.0,,Praça Treze de Junho,"694,077783","115,5621761",183,Rosarinho,-8.028376755,-34.89501515,694.077783,ROSARINHO
Das Flores,Praça,Rua Euclides Fonseca/Rua Dr Jose Higino Ribeiro Campos/R Prof Joao Rodrigues,123838.0,,Praça das Flores,"243,970787","88,71789312",175,Encruzilhada,-8.033250341,-34.89383251,243.970787,ENCRUZILHADA
Encanamento,Praça,Estrada Do Encanamento,123846.0,,Praça Encanamento,"2065,990973","282,7972507",434,Casa Amarela,-8.031791658,-34.91409823,2065.990973,CASA AMARELA
Bambu,Praça,Rua Nova Cruz / Rua Diamantina,123862.0,,Praça Bambu,"946,3491635","120,5863519",884,Cohab,-8.121702686,-34.9544336,946.3491635,COHAB
Da Biblia,Praça,Estrada Da Mumbeca/ Travessa Da Estrada Da Mumbeca,52850.0,15568/92,Praça da Biblia,"529,6176626","101,5410172",418,Guabiraba,-7.964861101,-34.92333092,529.6176626,GUABIRABA
Souto Filho,Praça,Rua Hoel Sette/Avenida Conselheiro Rosa E Silva/ Rua Do Futuro,66974.0,05640/59,Praça Souto Filho,"5582,462505","413,9905075",159,Jaqueira,-8.036102966,-34.90287433,5582.462505,JAQUEIRA
Prof. Calazans,Praça,Rua Galvao Raposo/Rua Jose Higino/ Rua Menezes Drumond/R Ernani Braga,77585.0,07413/61,Praça Professor Calazans,"3904,648033","242,0370332",647,Madalena,-8.050560695,-34.91019588,3904.648033,MADALENA
Odília Freire Dos Santos,Praça,Avenida Montevideu/Avenida Governador Agamenon Magalhaes,75698.0,,Praça Odília Freire dos Santos,"601,2040913","145,3617069",86,Boa Vista,-8.04948682,-34.89307306,601.2040913,BOA VISTA
Aureo Xavier / Des Adauto C De Araujo,Praça,Rua Aureo Xavier/Rua Francisco Vita / R Dom Jose Pereira Alves,72494.0,,Praça Aúreo Xavier,"932,4062466","185,3837078",680,Cordeiro,-8.050663593,-34.92580564,932.4062466,CORDEIRO
Aureo Xavier/ Des Adauto C De Araujo,Praça,Rua Aureo Xavier/ R Dom Jose Pereira Alves/Estrada Do Forte Do Arraial Novo Do Bom Jesus,72494.0,,Praça Aúreo Xavier,"983,0115446","199,1709498",680,Cordeiro,-8.050232683,-34.92658325,983.0115446,CORDEIRO
Cosme Viana,Praça,Rua Padre Teofilo Tworz/ Rua Cosme Viana,119741.0,,Praça Cosme Viana,"1969,610315","223,2056459",779,Afogados,-8.065654813,-34.90883536,1969.610315,AFOGADOS
Industrial Miguel Santos,Praça,Rua Pedro Americo Galvao/Rua Baltazar Pereira,66532.0,15003/87,Praça Industrial Miguel Santos,"1476,884316","160,7590623",205,Boa Viagem,-8.101388665,-34.88607995,1476.884316,BOA VIAGEM
Esmeraldas,Praça,Rua Engenho Buranhem / Rua Engenho Cabucu / Rua Engenho Matapagipe,83437.0,,Praca Esmeralda,"1174,270711","134,9670144",884,Cohab,-8.114716636,-34.94712554,1174.270711,COHAB
Jockey Clube,Praça,Dentro Do Joquei Club,72320.0,,Praça Jockey Clube,"1557,964633","197,2120475",663,Prado,-8.061409382,-34.91336654,1557.964633,PRADO
São Francisco/ Amante Das Flores,Praça,Avenida Rio Sao Francisco / Rua Jaguaruna / Rua Caraubas,75167.0,13170/78,Praça São Francisco/Amante das Flores,"1558,139309","161,0271134",884,Cohab,-8.115585041,-34.94599427,1558.139309,COHAB
Conselheiro João Alfredo / Sobrado Grande,Praça,Rua Real Da Torre/ Rua Benfica,66460.0,,Praça Conselheiro João Alfredo,"364,7600437","106,0965431",647,Madalena,-8.057328865,-34.908882,364.7600437,MADALENA
Conselheiro João Alfredo,Praça,Rua Benfica/Avenida Caxanga,66460.0,,Praça Conselheiro João Alfredo,"296,9778153","85,17727315",647,Madalena,-8.056885206,-34.90932343,296.9778153,MADALENA
Do Anfiteatro,Praça,Rua Alto Do Reservatorio,123072.0,,Praça do Anfiteatro,"2206,708145","193,491258",566,Nova Descoberta,-8.001463173,-34.935715,2206.708145,NOVA DESCOBERTA
Chayenne,Praça,Avenida Beberibe/Rua Judith/ R Do Anil,123056.0,,Praça Chayenne,"1505,979271","285,6222272",361,Porto Da Madeira,-8.006060549,-34.8922996,1505.979271,PORTO DA MADEIRA
Castro Alves,Praça,Avenida Norte Miguel Arraes De Alencar/R Natividade Saldanha/Rua Marechal Deodoro,123048.0,,Praça Castro Alves,"2025,110578","213,3310986",175,Encruzilhada,-8.04000747,-34.88705319,2025.110578,ENCRUZILHADA
Bomba Do Hemeterio,Praça,Rua Bomba Do Hemeterio/ Rua Cha De Alegria,123897.0,,Praça Bomba do Hemetério,"869,8145619","122,9796797",426,Bomba Do Hemeterio,-8.020226629,-34.90323444,869.8145619,BOMBA DO HEMETERIO
Alfredo Ozório,Praça,Rua Alfredo Ozório / Rua São Vicente,123870.0,,Praça Alfredo Ozório,"342,7168446","96,85691092",191,Tamarineira,-8.029367443,-34.90649245,342.7168446,TAMARINEIRA
Ayrton Senna,Praça,Rua Engenho Bom Destino / R Engenho Agua Branca  / R Engenho Serra Grande / R Engenho Tres Marias,123030.0,,Praça Ayrton Senna,"989,175602","122,6085032",884,Cohab,-8.113411477,-34.951048,989.175602,COHAB
Virgilio De Oliveira,Praça,Rua Virgilio Oliveira/ Rua Monsenhor Lobo /Rua Tito Livio Soares,123765.0,,Praça Virgilio de Oliveira,"1470,53894","161,4697853",477,Poco,-8.037376007,-34.92241367,1470.53894,POCO
3º Jardim De Boa Viagem,Praça,Avenida Boa Viagem,123790.0,,Praça 3º Jardim de Boa Viagem,"1859,501519","355,1405553",205,Boa Viagem,-8.10823516,-34.88845837,1859.501519,BOA VIAGEM
Sargento  Max Wolf Filho,Praça,Rua Florentino Olimpio Dos Santos/Rua Sargento  Wolff,123196.0,,Praça Sargento Max Wolf Filho,"1231,986965","144,0222075",779,Afogados,-8.071654519,-34.9114084,1231.986965,AFOGADOS
Largo Dona Regina,Praça,Rua Bujaru/ Rua Nova Descoberta,123188.0,,Praça Largo Dona Regina,"470,8349635","108,6507577",566,Nova Descoberta,-8.018561394,-34.92618305,470.8349635,NOVA DESCOBERTA
Heiji Gemba,Praça,Rua Heiji Gemba,123099.0,,Praça Heiji Gemba,"290,4975636","135,3926032",205,Boa Viagem,-8.132921301,-34.90436301,290.4975636,BOA VIAGEM
Dr Alberto Wanderley,Praça,Avenida Cidade De Monteiro/Rua Dr Alberto Wanderley,123170.0,,Praça Doutor Alberto Wanderley,"232,2953399","72,66511271",361,Porto Da Madeira,-8.009162474,-34.88836702,232.2953399,PORTO DA MADEIRA
Gustavo Barrozo,Praça,Travessa Alto Da Serrinha/R Gustavo Barrozo,123080.0,,Praça Gustavo Barrozo,"97,09871192","40,44303139",388,Linha Do Tiro,-8.012405066,-34.91221086,97.09871192,LINHA DO TIRO
São Pedro,Praça,Rua Brazopolis/ Avenida Brasilia Formosa,123234.0,,Praça São Pedro,"501,3029252","109,1648354",256,Brasilia Teimosa,-8.088754849,-34.88035131,501.3029252,BRASILIA TEIMOSA
Poço Da Panela,Praça,Estrada Real Do Poco,123218.0,,Praça Poço da Panela,"1141,582813","167,294885",477,Poco,-8.037073095,-34.92546349,1141.582813,POCO
Sarturnino De Brito,Praça,Avenida Sartunino De Brito/Rua Bituri,123200.0,,Praça Saturnino de Brito,"827,2310477","108,7587717",51,Cabanga,-8.079493912,-34.89299581,827.2310477,CABANGA
Casa Forte,Praça,Rua Da Praca De Casa Forte,78271.0,,Praça de Casa Forte,"2184,94935","182,3709516",442,Casa Forte,-8.034613064,-34.9193523,2184.94935,CASA FORTE
Sérgio Loreto,Praça,Avenida Sul/Avenida Dantas Barreto/Rua Imperial/ Rua Da Concordia,66982.0,01395/24,Praça Sérgio Loreto,"7751,003464","413,0977022",35,Sao Jose,-8.07266317,-34.88476982,7751.003464,SAO JOSE
Da Rua Olivia Menelau,Area Verde,Rua Olivia Menelau,,,,"86,27884584","43,79348162",264,Imbiribeira,-8.089426489,-34.91032224,86.27884584,IMBIRIBEIRA
Da Avenida Izabel De Goes,Area Verde,Avenida Izabel De Goes/Avenida Recife/Rua Antonio Vidal,,,,"6974,87038","364,6630069",850,Areias,-8.090526773,-34.92996294,6974.87038,AREIAS
Da Avenida Mario Alvares Pereira De Lyra,Area Verde,Avenida Mario Alvares Pereira De Lyra/Rua Manoel Estevao Da Costa/ Rua Bom Pastor,,,,"2794,406441","216,3210697",698,Iputinga,-8.04759017,-34.94038368,2794.406441,IPUTINGA
Da Rua Benfica,Area Verde,Rua Benfica,,,,"184,0312467","68,68555755",647,Madalena,-8.058779315,-34.9025264,184.0312467,MADALENA
Canavial,Praça,Rua Canavial/Rua Dr Luiz Ramos Leal,124230.0,,Praça Canavial,"660,9426907","106,2893106",396,Dois Unidos,-8.000901107,-34.90160325,660.9426907,DOIS UNIDOS
Da Avenida Historiador Jordao Emerenciano,Area Verde,Avenida Historiador Jordao Emerenciano/ Rua Quipapa/ Rua Veneza,122963.0,,Praça Luiz de Lacerda,"799,8173836","138,7563642",698,Iputinga,-8.035896445,-34.94310322,799.8173836,IPUTINGA
Da Rua Alberico Glasner Da Rocha,Praça,Rua Alberico Glasner Da Rocha/Rua Prof Barros Lima/ Rua Dirceu Pessoa,122483.0,,Praça Alberico Glasner da Rocha,"440,3239175","103,0289645",744,Caxanga,-8.023210481,-34.95766712,440.3239175,CAXANGA
Monsenhor Francisco Apolonio  Jorge Sales,Praça,Rua Da Soledade/Rua Joao Fernandes Vieira,123226.0,,Praça Francisco Apolônio Jorge Sales,"384,3941337","89,46925872",116,Soledade,-8.056381656,-34.89004205,384.3941337,SOLEDADE
Da Rua Joaquim De Brito,Praça,Da Rua Joaquim De Brito/Rua Esperanto/Rua Jornalista Trajano Chacon/ Rua General Joaquim Inacio,123269.0,,Praça da Rua Joaquim de Brito,"566,1284454","84,78548807",78,Ilha Do Leite,-8.063147243,-34.89352903,566.1284454,ILHA DO LEITE
Dr  Pedro Cavalcanti,Praça,Rua Dr. Jose Maria/Rua Neto De Mendonça/Rua General Abreu E Lima/,124079.0,17039/04,Praça Doutor Pedro Cavalcanti,"193,6409629","55,98049637",191,Tamarineira,-8.03517934,-34.90017692,193.6409629,TAMARINEIRA
Joao Pereira Borges,Praça,Rua Manoel Caetano/ R Dr Osvaldo Lima/ R Guilherme Pinto/ R Clemente Pereira,123706.0,17038/04,Praça João Pereira Borges,"601,3760925","113,6565556",140,Derby,-8.054339208,-34.90179053,601.3760925,DERBY
Da Criança Alexandra Vilma Dias,Praça,Rua Doutor Benígno Jordão De Vasconcelos / Rua José Luiz De Oliveira Barros Sobrinho,124214.0,16454/99,Praça da Criança Alexandra Vilma Dias,"803,6760348","172,2693605",884,Cohab,-8.119642827,-34.95056318,803.6760348,COHAB
Dr. Pádua Walfrido,Praça,Rua Rio Solimões/Rua Santa Joana D'Arc,125857.0,15673/92,Praça Doutor Pádua Walfrido,"2922,975399","238,0425938",850,Areias,-8.097461844,-34.93703052,2922.975399,AREIAS
Franco Gomes Coutinho,Praça,Rua Dr Joao Elisio/ Avenida Central,119873.0,14809/85,Praça Franco Gomes Coutinho,"481,8995068","104,8064644",795,Mangueira,-8.078626485,-34.91971566,481.8995068,MANGUEIRA
Da Juventude,Praça,Rua Palmeirina / Rua Perdizes / Rua Panorama / Rua Sao Bento Do Una,122319.0,14808/85,Praça da Juventude,"988,7063566","117,0484225",884,Cohab,-8.117294235,-34.94616336,988.7063566,COHAB
Vereador Carlos Duarte,Praça,Rua Capitão Lima/ Rua Do Veiga,59250.0,16433/98,Praça Vereador Carlos Duarte,"120,9298389","58,97550676",108,Santo Amaro,-8.052914011,-34.87953664,120.9298389,SANTO AMARO
Padre Romano Zuffery,Praça,Rua Dr Devaldo Borges/Rua Aguanil/Avenida Sao Paulo,119865.0,15173/88,Praça El Salvador,"1006,411249","139,6664853",868,Jardim Sao Paulo,-8.080472999,-34.94025329,1006.411249,JARDIM SAO PAULO
Queira Deus,Praça,Rua Falcão De Lacerda/ Rua Queira Deus,122890.0,,Praça Queira Deus,"235,63978","58,8656099",892,Tejipio,-8.092483772,-34.96183406,235.63978,TEJIPIO
Quinze  De Setembro,Praça,Rua Felipe De Oliveira/R Bernardino Da Costa/ R Louis Pasteur/ Rua Pedro Lessa,123854.0,,Praça Quinze de Setembro,"1360,130887","144,208363",264,Imbiribeira,-8.117062053,-34.91715269,1360.130887,IMBIRIBEIRA
Ana Lima Brandão,Praça,Rua Padre Alberione /R Jose Benedito Moury Fernandes/R Alheiros Maia/R Exp Sebastiao Clementino,119857.0,12735/77,Praça Ana Lima Brandão,"2857,346456","221,8186065",876,Barro,-8.09549176,-34.94386536,2857.346456,BARRO
Da Rua Arnoldo Magalhães,Praça,Rua Arnoldo Magalhães/Avenida Professor José Dos Anjos,,,,"2491,631349","226,7105227",434,Casa Amarela,-8.027008037,-34.90924086,2491.631349,CASA AMARELA
Compositor Antônio Maria,Praça,Rua Samuel Farias / Rua Nestor Silva / Rua Afonso De Albuquerque Melo,125881.0,17744/2011,Praça Compositor Antônio Maria,"12446,94758","462,4001661",450,Santana,-8.040307848,-34.91378683,12446.94758,SANTANA
Do Caiara Jonathan Marques Da Cunha,Parque,Avenida Mauricio De Nassau / Rua Estevao Francisco Da Costa,123935.0,,Parque Jonathan Marques da Cunha,"103155,2614","1755,461552",680,Cordeiro,-8.041767548,-34.92317634,103155.2614,CORDEIRO
Jonathan Marques Da Cunha,Parque,Avenida Mauricio De Nassau,123935.0,17746/2011,Parque Jonathan Marques da Cunha,"118767,2525","1788,122443",698,Iputinga,-8.03841897,-34.92763868,118767.2525,IPUTINGA
Jonathan Marques Da Cunha,Parque,Avenida Mauricio De Nassau,123935.0,17746/2011,Parque Jonathan Marques da Cunha,"118767,2525","1788,122443",680,Cordeiro,-8.040234263,-34.92601552,118767.2525,CORDEIRO
Doutor Fernando Figueira,Praça,Rua Marques Amorim / Rua Jose De Alencar/ Rua Estado De Israel,23345.0,116903/03,Praça Dr Fernando Figueira,"6530,251296","314,8853153",78,Ilha Do Leite,-8.065514974,-34.89326168,6530.251296,ILHA DO LEITE
De Apipucos,Parque,Rua Apipucos,123323.0,25189/2010,Parque de Apipucos,"11755,15463","437,021664",485,Monteiro,-8.021990604,-34.93320107,11755.15463,MONTEIRO
Provisória  Mauricio De Nassau E Duarte Coelho,Praça,Cais De Santa Rita,119660.0,,Praça Maurício de Nassau e Duarte Coelho,"1159,353523","532,8879247",35,Sao Jose,-8.071509944,-34.87621436,1159.353523,SAO JOSE
Da Tamarineira,Parque,Avenida Conselheiro Rosa E Silva / Rua Cônego Barata,125431.0,17802/2012,Parque da Tamarineira,"56496,35901","1120,890803",191,Tamarineira,-8.032919802,-34.90181629,56496.35901,TAMARINEIRA
João Francisco Lisboa,Praça,Rua  Joao Francisco Lisboa / Rua  Inacio De Barros Barreto,124257.0,,Praça João Francisco Lisboa,"3904,960335","288,9292975",736,Varzea,-8.053074889,-34.95955794,3904.960335,VARZEA
Do Terminal,Praça,Rua Dr Gil Francisco Da Rocha/Rua Capitão Amaro Cerqueira/ Rua Sargento Afonso Rodrigues,122564.0,,Praça do Terminal,"208,9634088","51,24430243",850,Areias,-8.094489339,-34.92404121,208.9634088,AREIAS
Refugo,Praça,Rua Izabel De Goes/ Rua Antonio Vidal/ Avenida Recife,122459.0,,Praça Izabel de Goes,"6974,87038","364,6630069",850,Areias,-8.090526773,-34.92996294,6974.87038,AREIAS
Zeppelin,Praça,Rua Lázaro Fontes/ Trv Lázaro Fontes/Avenida Dr. José Rufino,122556.0,,Praça Zeppelin,"889,2605157","121,7094448",825,Jiquia,-8.083288224,-34.92522742,889.2605157,JIQUIA
Do Tourão,Praça,Avenida Tapajós/Rua Ernesto Nazareth,122572.0,,Praça do Tourão,"1339,494491","176,9984338",850,Areias,-8.092859902,-34.92536535,1339.494491,AREIAS
Infantil John F. Kennedy,Parque,Rua Itamonte/Rua Andira,122580.0,,Praça Infantil John F. Kennedy,"630,25272","100,757864",752,Curado,-8.081735785,-34.95581679,630.25272,CURADO
Professor Paulo Silveira Do Nascimento,Praça,Rua Daniel Antônio Rodrigues,122599.0,,Praça Professor Paulo Silveira do Nascimento,"708,3548314","132,9996243",779,Afogados,-8.083186297,-34.92185723,708.3548314,AFOGADOS
João Stanislau,Praça,Rua Rio Solimões/Rua Novo Horizonte/Rua Helio Almeida,122602.0,,Praça João Stanislau,"976,5912136","149,5358817",850,Areias,-8.097661118,-34.93837157,976.5912136,AREIAS
Queira Deus,Praça,Rua Queira Deus,122890.0,,Praça Queira Deus,"136,6842457","44,57388915",892,Tejipio,-8.092678047,-34.96173746,136.6842457,TEJIPIO
Dom Helder,Praça,Rua Quatro De Setembro/Rua Curua/Rua Padre José,122629.0,,Praça Dom Helder,"315,4097477","72,63263622",752,Curado,-8.081500114,-34.95375576,315.4097477,CURADO
Padre Romano Zuferey,Praça,Rua Maria Do Carmo Catunda/Rua Dr Devaldo Borges,122637.0,,Praça Padre Romano Zuferey,"1083,915355","141,9925223",868,Jardim Sao Paulo,-8.078357109,-34.93973457,1083.915355,JARDIM SAO PAULO
Maria Madalena Bispo,Praça,Estrada Do Curado/1Tr Sidrolandia,122645.0,,Praça Maria Madalena Bispo,"79,15210465","50,55611894",752,Curado,-8.079585171,-34.9521782,79.15210465,CURADO
Zeppelin,Praça,Rua Des Lopes Gama/  Rua Bonifácio De Andrade,122556.0,,Praça Zeppelin,"518,0819457","102,3859067",817,San Martin,-8.07290586,-34.92792277,518.0819457,SAN MARTIN
,Praça,Rua Itabapoana / Rua Caetité/ Rua Braço Do Norte,,,,"779,3793","140,4426771",43,Ilha Joana Bezerra,-8.070007656,-34.90027463,779.3793,ILHA JOANA BEZERRA
Zumbi Dos Palmares,Praca,Avenida Jose Americo De Almeida,68268.0,,Praça Zumbi dos Palmares,"707,2195171","94,27327441",582,Macaxeira,-8.01054197,-34.9308843,707.2195171,MACAXEIRA
Do Jordao / Da Rua Muniz Ferreira,Praça,Rua Jose Martorano / Rua Dr Andrade Lyra / Rua Dr Alvaro Ferraz /Rua Lima Campos,76422.0,,Praça do Jordão,"1660,198027","158,8434846",221,Jordao,-8.130438342,-34.93801131,1660.198027,JORDAO
De Santana,Parque,Rua Jorge Gomes De Sá / Rua Dr Abel Ventura,123064.0,,Parque de Santana,"36299,97329","963,2480931",450,Santana,-8.042019233,-34.91782559,36299.97329,SANTANA
,Praca,Rua Maria  Adelaide Castelo Brancorua Joao Cordeiro De Souza,118800.0,,Rua Maria Adelaide Castelo Branco,"1096,328153","138,5426674",884,Cohab,-8.124246154,-34.95112973,1096.328153,COHAB
,Praca,Rua Dr Rinaldo Victor Fernandes/ Rua Jose Augusto De Barros,119458.0,,Praça da Rua José Augusto de Barros,"1719,914165","174,4910589",825,Jiquia,-8.086837182,-34.92314045,1719.914165,JIQUIA
,Praca,Rua Pinheiro Machado/ Rua Professor Pacifico Pereira,118834.0,,Praça da Rua Pinheiro Machado,"1144,303287","135,3521939",884,Cohab,-8.134214402,-34.95134622,1144.303287,COHAB
,Praca,Rua Professor Avertano Rocha/ Rua Des Capistrano De M E Silva,123331.0,,Praça da Rua Professor Avertano Rocha,"1069,911478","150,6534318",701,Torroes,-8.066851556,-34.93340057,1069.911478,TORROES
,Praca,Rua Augusto Bamberg De Melo,119490.0,,PRC   RUA AUGUSTO BAMBERG DE MELO,"1409,898113","177,9466455",892,Tejipio,-8.089731349,-34.94989529,1409.898113,TEJIPIO
,Praca,Rua Principe Da Beira,119440.0,,Praça da Rua Príncipe da Beira,"4667,949812","270,1816725",825,Jiquia,-8.090665807,-34.92269581,4667.949812,JIQUIA
,Praca,Rua Tristao Da Cunha/Rua Visconde De Santo Albino,119431.0,,Praça da Rua Tristão da Cunha,"814,7004676","144,771617",884,Cohab,-8.134950419,-34.95371043,814.7004676,COHAB
,Area Verde,Rua  Antonio Almeida/ Rua Celio Tavares,,,,"1383,426958","159,2592664",264,Imbiribeira,-8.091539168,-34.91636613,1383.426958,IMBIRIBEIRA
